STRUCTURE_TYPE,STRUCTURE_TYPE2,DESCRIPTION,LOCATION,STRUCTURE_DETAIL_TYPE,SPECIAL_FEATURES,MATERIAL_TYPE,WIDTH_M,SEATING_TYPE,GIFT_DONATION,PLAQUE_DETAIL,BENCH_STYLE,CAPACITY,DIMENSION_M2,COMPONENT_TYPE,SURFACE_MATERIAL,WINTERIZED,LENGTH_M,HOUSE_NO,STATUS,STATUS_DATE,PARK_OWNERSHIP,INSERVICE_DATE,INSERVICE_COST,CONDITION,YRS_LIFE_EXPECTANCY,WARRANTYDATE,WARRANTY_PROVIDER,OPERATING_LOCATION,OPERATING_LOCATION_TYPE,Latitude,Longitude
3,Shelters and Tables,"Table #10 - Permanent; Green Timbers Urban Forest Park, 14698 96 Ave","east side of lake, in picnic area",,,Plastic,,,,,,,,Table - Permanent,,,,14698,OPERATING,20091023145700,,20090801,0,,,,,"Green Timbers Urban Forest Park, 14698 96 Ave",Land,49.180771,-122.820003
3,Shelters and Tables,"Table #11 - Permanent; Green Timbers Urban Forest Park, 14698 96 Ave","east side of lake, in picnic area",,,Plastic,,,,,,,,Table - Permanent,,,,14698,OPERATING,20091023145800,,20090801,0,,,,,"Green Timbers Urban Forest Park, 14698 96 Ave",Land,49.180576,-122.819826
3,Shelters and Tables,"Table #3 - Permanent; Bakerview Park, 1845 154 St",east of playground,,,Wood,,,,,,,,Table - Permanent,,,,01845,OPERATING,20100218130400,,20090201,0,,,,,"Bakerview Park, 1845 154 St",Park,49.035080,-122.797038
3,Shelters and Tables,"Table #4 - Permanent; Bakerview Park, 1845 154 St",east of playground,,,Wood,,,,,,,,Table - Permanent,,,,01845,OPERATING,20100218130600,,20090201,0,,,,,"Bakerview Park, 1845 154 St",Park,49.034971,-122.796962
3,Shelters and Tables,"Table #5 - Permanent; Bakerview Park, 1845 154 St",east of playground,,,Wood,,,,,,,,Table - Permanent,,,,01845,OPERATING,20100218130600,,20090201,0,,,,,"Bakerview Park, 1845 154 St",Park,49.034943,-122.797092
3,Shelters and Tables,"Table #9 - Permanent; Unwin Park, 13313 68 Ave",east of diamond 1,,,Wood,,,,,,,,Table - Permanent,,,,13313,OPERATING,20100624170500,,,0,,,,,"Unwin Park, 13313 68 Ave",Park,49.129900,-122.852681
3,Shelters and Tables,"Table #1 - Portable; Green Timbers Park, 14255 96 Ave",just east of West Cape Cod building,,,,,,,,,,,Table - Portable,,,,14255,OPERATING,20100806095700,,20091001,0,,,,,"Green Timbers Park, 14255 96 Ave",Park,49.179009,-122.830565
3,Shelters and Tables,"Table #2 - Portable; Green Timbers Park, 14255 96 Ave",SW of West Cape Cod building,,,,,,,,,,,Table - Portable,,,,14255,OPERATING,20100806100600,,20091001,0,,,,,"Green Timbers Park, 14255 96 Ave",Park,49.178805,-122.831089
3,Shelters and Tables,"Table #3 - Portable; Green Timbers Park, 14255 96 Ave",SW of West Cape Cod building,,,,,,,,,,,Table - Portable,,,,14255,OPERATING,20100806100700,,20091001,0,,,,,"Green Timbers Park, 14255 96 Ave",Park,49.178857,-122.831183
3,Shelters and Tables,"Table #4 - Portable; Green Timbers Park, 14255 96 Ave",along West edge of commemorative planting,,,,,,,,,,,Table - Portable,,,,14255,OPERATING,20100806100800,,20091001,0,,,,,"Green Timbers Park, 14255 96 Ave",Park,49.178378,-122.830186
3,Shelters and Tables,"Table #5 - Portable; Green Timbers Park, 14255 96 Ave",along West edge of commemorative planting,,,,,,,,,,,Table - Portable,,,,14255,OPERATING,20100806101000,,20091001,0,,,,,"Green Timbers Park, 14255 96 Ave",Park,49.178283,-122.830266
3,Shelters and Tables,"Table #6 - Portable; Green Timbers Park, 14255 96 Ave",along West edge of commemorative planting,,,,,,,,,,,Table - Portable,,,,14255,OPERATING,20100806101100,,20091001,0,,,,,"Green Timbers Park, 14255 96 Ave",Park,49.178214,-122.830332
3,Shelters and Tables,"Table #7 - Portable; Green Timbers Park, 14255 96 Ave",along West edge of commemorative planting,,,,,,,,,,,Table - Portable,,,,14255,OPERATING,20100806101200,,20091001,0,,,,,"Green Timbers Park, 14255 96 Ave",Park,49.178154,-122.830390
0,Benches and Bleachers,"2 Benches; Hunter Park - 88A, 5480 - 184A St",Near middle of park,,,,0,Bench,,,,0,,,,,,05480,OPERATING,,,,0,,,,,"Hunter Park, 5480 184A St",,49.102035,-122.711031
1,Gates,"Bollard; Robin Park, 11240 150 St",Robin Cr - SW corner of park,Bollard,,Metal,,,,,,,,,,,,11240,OPERATING,,,,,,,,,"Robin Park, 11240 150 St",Park,49.206120,-122.806070
1,Gates,"Bollard; Robin Park, 11240 150 St",Robin Cr - SW corner of park,Bollard,,Metal,,,,,,,,,,,,11240,OPERATING,,,,,,,,,"Robin Park, 11240 150 St",Park,49.206121,-122.806050
1,Gates,"Bollard; Robin Park, 11240 150 St",Robin Cr - SW corner of park,Bollard,,Metal,,,,,,,,,,,,11240,OPERATING,,,,,,,,,"Robin Park, 11240 150 St",Park,49.206121,-122.806030
0,Benches and Bleachers,"Permanent Wood Bench; Sullivan Park, 6272 - 152 St",Dia-SB 1/2/4/,,,,0,Bench,,,,0,,,,,,06272,OPERATING,,,,0,,,,,"Sullivan Park, 6272 152 St",,49.116882,-122.800740
0,Benches and Bleachers,"Fixed Location Bench; Glenwood Park - 15N, 16625 - Glenwood Cres South",Near 105 Ave Entrance,,,,0,Bench,,,,0,,,,,,16625,OPERATING,,,,0,,,,,"Glenwood Park, 16625 Glenwood Cres South",,49.193132,-122.761029
0,Benches and Bleachers,"2 Permanent Benches; Redwood Park, 17900 - 20 Ave",Treehouse,,,,0,Bench,,,,0,,,,,,17900,OPERATING,,,,0,,,,,"Redwood Park, 17900 20 Ave",,49.035917,-122.726385
0,Benches and Bleachers,"2 Permanent Wood Benches(In Dugout); Sunnyside Park, 15455 - 26 Ave",Dia-SB 1,,,,0,Bench,,,,0,,,,,,15455,OPERATING,,,,0,,,,,"Sunnyside Park, 15455 26 Ave",,49.050029,-122.795273
0,Benches and Bleachers,"2 Fixed Location Benches; Sunnyside Park, 15455 - 26 Ave",Dia-SB 1,,,,0,Bench,,,,0,,,,,,15455,OPERATING,,,,0,,,,,"Sunnyside Park, 15455 26 Ave",,49.050074,-122.795273
0,Benches and Bleachers,"Fixed Location Bench; 24L - Greenbelt, 9873 159 St",W. Side Of Site,,,,0,Bench,,,,0,,,,,,09873,OPERATING,,,,0,,,,,"24L - Tot-Lot, 9873 159 St",,49.181745,-122.781765
0,Benches and Bleachers,"2 Permanent Benches; Fleetwood Park, 15802 - 80 Ave",1st Baseline of Dia-SB 4,,,,0,Bench,,,,0,,,,,,15802,OPERATING,,,,0,,,,,"Fleetwood Park, 15802 80 Ave",,49.148124,-122.783084
0,Benches and Bleachers,"Fixed Location Bench; Hazelnut Meadows Community Park, 14069 68 Ave",Along Path,,,,0,Bench,,,,0,,,,,,14069,OPERATING,,,,0,,,,,"Hazelnut Meadows Community Park, 14069 68 Ave",,49.126391,-122.832364
0,Benches and Bleachers,"Fixed Location Bench; 33C - Tot-Lot, 14484 - 91 Ave",Beside Playground,,,,0,Bench,,,,0,,,,,,14484,OPERATING,,,,0,,,,,"33C - Tot-Lot, 14484 91 Ave",,49.167710,-122.821086
6,Other,"BBQ Stand; Green Timbers Urban Forest Park, 14698 96 Ave",next to table 5,,,Metal,,,,,,,,,,,,14698,OPERATING,,,20131101,,,,,,"Green Timbers Urban Forest Park, 14698 96 Ave",Land,49.180324,-122.820053
6,Other,"BBQ Stand; Blackie Spit, 3136 McBride Ave",next to table 6,,,Metal,,,,,,,,,,,,03136,OPERATING,,,,,,,,,"Blackie Spit, 3136 McBride Ave",Park,49.059220,-122.882795
6,Other,"BBQ Stand; Blackie Spit, 3136 McBride Ave",next to table 9,,,Metal,,,,,,,,,,,,03136,OPERATING,,,,,,,,,"Blackie Spit, 3136 McBride Ave",Park,49.059235,-122.882305
4,Stairs,"Stairway #1 - Enver Creek Park, 8170 146 St",along P2 near 81A Ave entrance,,,Wood,,,,,,,,,,,15,08170,OPERATING,,,20150824,,,,,,"Enver Creek Park, 8170 146 St",Park,49.150994,-122.815358
6,Other,"BBQ Stand; Bothwell Park, 9435 - 168 St",next to table 2,,,Metal,,,,,,,,,,,,09435,OPERATING,,,20131101,,,,,,"Bothwell Park, 9435 168 St",Park,49.172508,-122.757927
6,Other,"BBQ Stand; Redwood Park, 17900 - 20 Ave",next to table 1,,,Metal,,,,,,,,,,,,17900,OPERATING,,,,,,,,,"Redwood Park, 17900 - 20 Ave",Park,49.036105,-122.727487
6,Other,"BBQ Stand; Redwood Park, 17900 - 20 Ave",next to table 2,,,Metal,,,,,,,,,,,,17900,OPERATING,,,,,,,,,"Redwood Park, 17900 - 20 Ave",Park,49.036150,-122.727214
6,Other,"BBQ Stand; Redwood Park, 17900 - 20 Ave",next to table 3,,,Metal,,,,,,,,,,,,17900,OPERATING,,,,,,,,,"Redwood Park, 17900 - 20 Ave",Park,49.036204,-122.726894
6,Other,"BBQ Stand; Green Timbers Urban Forest Park, 14698 96 Ave",Green Timbers Urban Forest Park,,,Metal,,,,,,,,,,,,14698,OPERATING,,,20131101,,,,,,"Green Timbers Urban Forest Park, 14698 96 Ave",Land,49.180791,-122.820027
6,Other,"BBQ Stand; Green Timbers Urban Forest Park, 14698 96 Ave",next to table 6,,,Metal,,,,,,,,,,,,14698,OPERATING,,,20131101,,,,,,"Green Timbers Urban Forest Park, 14698 96 Ave",Land,49.180440,-122.820236
0,Benches and Bleachers,"Bench; Moffat Memorial Park, 9434 122 St","north of playground, ref # 1",,,Other,,Bench,N,,Basic,,,,,,,09434,OPERATING,20110208161100,,20101204,0,,,,,"Moffat Memorial Park, 9434 122 St",Park,49.174002,-122.884259
1,Gates,"2 Bicycle Baffles; 121W - Greenbelt, 1606 134 St",At 133A St Entrance To Pathway,Bicycle Baffle,,,,,,,,,,,,,,01606,OPERATING,,,,0,,,,,"121W - Greenbelt, 1606 134 St",,49.031356,-122.851177
1,Gates,"2 Bicycle Baffles; 121W - Greenbelt, 1606 134 St",At 16 Ave Entrance To Pathway,Bicycle Baffle,,,,,,,,,,,,,,01606,OPERATING,,,,0,,,,,"121W - Greenbelt, 1606 134 St",,49.031362,-122.849814
3,Shelters and Tables,"Table #6 - Portable; Elgin Heritage Park, 13723 - Crescent Rd",in grass area north of farmhouse,,,Metal,,,,,,,,Table - Portable,,,,13723,OPERATING,20051018075500,,,0,,,,,"Elgin Heritage Park, 13723 Crescent Rd",Park,49.065483,-122.841568
1,Gates,"2 Bicycle Baffles; 121W - Greenbelt, 1606 134 St",At 134 St Entrance To Pathway,Bicycle Baffle,,Metal,,,,,,,,,,,,01606,OPERATING,,,,0,,,,,"121W - Greenbelt, 1606 134 St",,49.031565,-122.849975
3,Shelters and Tables,"Table #9 - Permanent; Clayton Park, 18513 70 Ave",south bocci court,,,Metal,,,,,,,,Table - Permanent,,,,18513,OPERATING,20051018082900,,,0,,,,,"Clayton Park, 18513 70 Ave",Park,49.130652,-122.708659
3,Shelters and Tables,"Table #1 - Permanent; Bridgeview Park, 11475 - 126A St",SE of tennis courts,,,Concrete,,,,,,,,Table - Permanent,,,,11475,OPERATING,,,,0,,,,,"Bridgeview Park, 11475 126A St",Park,49.210374,-122.871472
3,Shelters and Tables,"Table #2 - Permanent; Bridgeview Park, 11475 126A St",E of playground,,,Wood,,,,,,,,Table - Permanent,,,,11475,OPERATING,20030318103500,,20020627,0,,,,,"Bridgeview Park, 11475 126A St",Park,49.210210,-122.871494
3,Shelters and Tables,"Table #8 - Permanent; Unwin Park, 13313 68 Ave",NW of water playground,,,Wood,,,,,,,,Table - Permanent,,,,13313,OPERATING,20051018074600,,,0,,,,,"Unwin Park, 13313 68 Ave",Park,49.126903,-122.853665
3,Shelters and Tables,"Table #3 - Permanent; Bridgeview Park, 11475 126A St",NE of water playground,,,Wood,,,,,,,,Table - Permanent,,,,11475,OPERATING,20051018095900,,20020627,0,,,,,"Bridgeview Park, 11475 126A St",Park,49.210304,-122.871189
3,Shelters and Tables,"Table #4 - Permanent; Bridgeview Park, 11475 126A St",SE of water playground,,,Wood,,,,,,,,Table - Permanent,,,,11475,OPERATING,20051018100000,,20020627,0,,,,,"Bridgeview Park, 11475 126A St",Park,49.210028,-122.871243
3,Shelters and Tables,"Table - Permanent; Whalley Athletic Park, 13350 - 105A Ave",South of Caretakers,,,Concrete,,,,,,,,Table - Permanent,,,,13350,OPERATING,,,,0,,,,,"Whalley Athletic Park, 13351 105A Ave",Park,49.196191,-122.851614
3,Shelters and Tables,"Park Shelter - Permanent; Hawthorne Park, 10503 - 144 St",south of parking lot and west of playground,,,Wood,,,,,,,,Park Shelter - Permanent,,,,10503,OPERATING,,,19980101,0,,,,,"Hawthorne Park, 10503 144 St",Park,49.193517,-122.826054
3,Shelters and Tables,"Table #8 - Portable; Green Timbers Park, 14255 96 Ave",S of sign kiosk in commemorative planting,,,,,,,,,,,Table - Portable,,,,14255,OPERATING,20100806101300,,20091001,0,,,,,"Green Timbers Park, 14255 96 Ave",Park,49.178244,-122.829740
3,Shelters and Tables,"Table #9 - Portable; Green Timbers Park, 14255 96 Ave",S of sign kiosk in commemorative planting,,,,,,,,,,,Table - Portable,,,,14255,OPERATING,20100806101400,,20091001,0,,,,,"Green Timbers Park, 14255 96 Ave",Park,49.178210,-122.829664
3,Shelters and Tables,"Table #32 - Permanent; Bear Creek Park, 13750 88 Ave",south of main playground,,,,,,,,,,,Table - Permanent,,,,13750,OPERATING,20101006134600,,20090901,0,,,,,"Bear Creek Park, 13750 88 Ave",Park,49.159608,-122.840330
6,Other,3 Flagpoles; Blvd - Sign @ Hwy 99 & 8 Ave,In hort bed on blvd,,,Metal,,,,,,,,,,,,49901,OPERATING,,,,,,,,,"Blvd, Sign @ Hwy 99 & 8 Ave",Park,49.016284,-122.758658
6,Other,"Bike Rack; Newton Athletic Park, 7395 128 St",Adjacent to Soccer 1 north east corner,,,Metal,,,,,,,,,,,,07395,OPERATING,,,,,,,,,"Newton Athletic Park, 7395 128 St",Park,49.138451,-122.870201
3,Shelters and Tables,"Park Shelter - Portable; Chimney Heights Park, 14677 74 Ave",,,,,,,,,,,,Park Shelter - Portable,,,,14677,OPERATING,20030718094200,,20030902,0,,,,,"Chimney Heights Park, 14677 74 Ave",Park,49.138503,-122.816521
1,Gates,"Bollard; Newton Pond, 13720 70 Ave",138 St Entrance (North),Bollard,,,,,,,,,,,,,,13720,OPERATING,,,20160526,,,,,,"Newton Pond, 13720 70 Ave",Park,49.129115,-122.838881
3,Shelters and Tables,"Table #1 - Permanent; Holland Park, 13428 Old Yale Road",west side of park along P1,,,,,,,,,,,Table - Permanent,,,,13428,OPERATING,20110615084000,,20110615,0,,,,,"Holland Park, 13428 Old Yale Road",Park,49.184980,-122.851155
3,Shelters and Tables,"Table #2 - Permanent; Holland Park, 13428 Old Yale Road",west side of park along P1,,,,,,,,,,,Table - Permanent,,,,13428,OPERATING,20110615084200,,20110615,0,,,,,"Holland Park, 13428 Old Yale Road",Park,49.184937,-122.851120
3,Shelters and Tables,"Table #15 - Permanent; Fleetwood Park, 15802 - 80 Ave",south of playground,,,,,,,,,,,Table - Permanent,,,,15802,OPERATING,20110615085300,,20100301,0,,,,,"Fleetwood Park, 15802 80 Ave",Park,49.147425,-122.783303
1,Gates,"Bollard; Newton Pond, 13720 70 Ave",138 St Entrance (North),Bollard,,,,,,,,,,,,,,13720,OPERATING,,,20160526,,,,,,"Newton Pond, 13720 70 Ave",Park,49.129126,-122.838877
1,Gates,"Bollard; Newton Pond, 13720 70 Ave",138 St Entrance (South),Bollard,,,,,,,,,,,,,,13720,OPERATING,,,20160526,,,,,,"Newton Pond, 13720 70 Ave",Park,49.127582,-122.840161
0,Benches and Bleachers,"Bench; The Glades, 561 172 St","In the park, bench ref # 2",,,Metal,0,Bench,,,Garden,0,,,,,,00561,OPERATING,,,,0,,,,,"The Glades, 561 172 St",,49.011274,-122.746537
0,Benches and Bleachers,"Bench; The Glades, 561 172 St","In the park, bench ref # 3",,,Metal,0,Bench,,,Garden,0,,,,,,00561,OPERATING,,,,0,,,,,"The Glades, 561 172 St",,49.011564,-122.746562
1,Gates,"Bollard; Newton Athletic Park, 7395 - 128 St",SW corner of parking lot # 1,Bollard,,,,,,,,,,,,,,07395,OPERATING,,,20160601,,,,,,"Newton Athletic Park, 7395 128 St",Park,49.136474,-122.869862
0,Benches and Bleachers,"Bench; The Glades, 561 172 St","In the park, bench ref # 5",,,Metal,0,Bench,,,Garden,0,,,,,,00561,OPERATING,,,,0,,,,,"The Glades, 561 172 St",,49.011974,-122.747162
1,Gates,"Bollard; Robin Park, 11240 150 St",Entrance to Parking Lot,Bollard,,Metal,,,,,,,,,,,,11240,OPERATING,,,,,,,,,"Robin Park, 11240 150 St",Park,49.206111,-122.804400
1,Gates,"Bollard; Robin Park, 11240 150 St",Entrance to Parking Lot,Bollard,,Metal,,,,,,,,,,,,11240,OPERATING,,,,,,,,,"Robin Park, 11240 150 St",Park,49.206153,-122.804018
1,Gates,"Bollard; 4E - Greenbelt, 11243 - 153 St",At 153 St Entrance,Bollard,,,,,,,,,,,,,,11243,OPERATING,,,,0,,,,,"4E - Greenbelt, 11243 153 St",,49.206503,-122.798392
0,Benches and Bleachers,"Bench; Boundary Park, 6058 Boundary Dr West","Along path Parkside Place enterance, bench ref # 6",,,Metal,,Bench,N,,Cast,,,,,,,06058,OPERATING,20101020110100,,20071201,0,,,,,"Boundary Park, 6058 Boundary Dr West",Park,49.111651,-122.887912
0,Benches and Bleachers,"Bench; The Glades, 561 172 St","In the park, bench ref # 1",,,Metal,0,Bench,,,Garden,0,,,,,,00561,OPERATING,,,,0,,,,,"The Glades, 561 172 St",,49.011304,-122.746562
1,Gates,"Bollard; Newton Athletic Park, 7395 - 128 St",SW corner of parking lot # 1,Bollard,,,,,,,,,,,,,,07395,OPERATING,,,20160601,,,,,,"Newton Athletic Park, 7395 128 St",Park,49.136478,-122.869870
1,Gates,"Bollard; Robin Park, 11240 150 St",Entrance to Parking Lot,Bollard,,Metal,,,,,,,,,,,,11240,OPERATING,,,,,,,,,"Robin Park, 11240 150 St",Park,49.206121,-122.804412
1,Gates,"Bollard; Robin Park, 11240 150 St",Entrance to Parking Lot,Bollard,,Metal,,,,,,,,,,,,11240,OPERATING,,,,,,,,,"Robin Park, 11240 150 St",Park,49.206153,-122.804034
1,Gates,"Bollard; 4B - Walkway, 11371 - 153A St",At 153A St Entrance,Bollard,,,,,,,,,,,,,,11371,OPERATING,,,,0,,,,,"4B - Walkway, 11371 153A St",,49.208985,-122.798236
1,Gates,"Bollard; 4A - Walkway, 11370 - 153A St",At 153A St Entrance,Bollard,,,,,,,,,,,,,,11370,OPERATING,,,,0,,,,,"4A - Walkway, 11370 153A St",,49.209245,-122.797279
0,Benches and Bleachers,"Bench; Moffat Memorial Park, 9434 122 St","east of playground, ref # 2",,,Other,,Bench,N,,Basic,,,,,,,09434,OPERATING,20110208161300,,20101204,0,,,,,"Moffat Memorial Park, 9434 122 St",Park,49.173931,-122.884009
3,Shelters and Tables,"Park Shelter #3 - Portable; Dominion Park, 8225 - 134 St",west of playground,,,Steel,,,,,,,,Park Shelter - Portable,,,,08225,OPERATING,,,,0,,,,,"Dominion Park, 8225 134 St",Park,49.151769,-122.852251
3,Shelters and Tables,"Park Shelter #1 - Portable; Tamanawis Park, 12515 64 Ave",,,,,,,,,,,,Park Shelter - Portable,,,,12515,OPERATING,,,20100101,,,,,,"Tamanawis Park, 12515 64 Ave",Park,49.120673,-122.874415
3,Shelters and Tables,"Park Shelter #2 - Portable; Tamanawis Park, 12515 64 Ave",,,,,,,,,,,,Park Shelter - Portable,,,,12515,OPERATING,,,20150701,,,,,,"Tamanawis Park, 12515 64 Ave",Park,49.120836,-122.874423
3,Shelters and Tables,"Park Shelter #3 - Portable; Tamanawis Park, 12515 64 Ave",,,,,,,,,,,,Park Shelter - Portable,,,,12515,OPERATING,,,20150701,,,,,,"Tamanawis Park, 12515 64 Ave",Park,49.120573,-122.874411
3,Shelters and Tables,"Table #1 - Permanent; Moffat Memorial Park, 9434 122 St",adjacent to Playground 1,,,,,,,,,,,Table - Permanent,,,,09434,OPERATING,,,,,,,,,"Moffat Memorial Park, 9434 122 St",Park,49.174010,-122.884157
3,Shelters and Tables,"Table #2 - Permanent; Moffat Memorial Park, 9434 122 St",adjacent to Playground 1,,,,,,,,,,,Table - Permanent,,,,09434,OPERATING,,,,,,,,,"Moffat Memorial Park, 9434 122 St",Park,49.174015,-122.884068
3,Shelters and Tables,"Table - Permanent; Whalley Athletic Park, 13350 - 105A Ave",south of playground 2,,,Wood,,,,,,,,Table - Permanent,,,,13350,OPERATING,,,,,,,,,"Whalley Athletic Park, 13351 105A Ave",Park,49.196285,-122.851388
3,Shelters and Tables,"Table #2 - Permanent; Holly Park, 10706 - 148 St",SE of parking lot,,,Concrete,,,,,,,,Table - Permanent,,,,10706,OPERATING,,,,0,,,,,"Holly Park, 10706 148 St",Park,49.196622,-122.811494
3,Shelters and Tables,"Table #3 - Permanent; Holly Park, 10706 - 148 St",W of pool,,,Concrete,,,,,,,,Table - Permanent,,,,10706,OPERATING,,,,0,,,,,"Holly Park, 10706 148 St",Park,49.196256,-122.812055
3,Shelters and Tables,"Table #1 - Permanent; Erma Stephenson Park, 15920 110 Ave",NW of water playground,,,Wood,,,,,,,,Table - Permanent,,,,15920,OPERATING,20051018121200,,20050627,0,,,,,"Erma Stephenson Park, 15920 110 Ave",Park,49.202184,-122.781411
3,Shelters and Tables,"Table #2 - Permanent; Erma Stephenson Park, 15920 110 Ave",near water playground,,,Wood,,,,,,,,Table - Permanent,,,,15920,OPERATING,20051018121400,,20050627,0,,,,,"Erma Stephenson Park, 15920 110 Ave",Park,49.201713,-122.781306
3,Shelters and Tables,"Table - Permanent; Royal Heights Park, 9780 - Crown Cres",North of Blacktop Play Area,,,Metal,,,,,,,,Table - Permanent,,,,09780,OPERATING,,,,0,,,,,"Royal Heights Park, 9780 Crown Cres",Park,49.180499,-122.904714
1,Gates,"2  Bicycle Baffles; 122A - Greenbelt, 13810 18a Ave",2 at South end of asphalt path on 18 Ave.,Bicycle Baffle,,,,,,,,,,,,,,13810,OPERATING,20020719,,19950517,0,,,,,"122A - Greenbelt, 13810 18a Ave",,49.034942,-122.839354
3,Shelters and Tables,"Park Shelter #1 - Portable; Robertson Drive Park, 12730 92 Ave","On paved area, south shelter",,,,,,,,,,,Park Shelter - Portable,,,,12730,OPERATING,20030718094600,,20020227,0,,,,,"Robertson Drive Park, 12730 92 Ave",Park,49.168979,-122.870208
3,Shelters and Tables,"Park Shelter #2 - Portable; Robertson Drive Park, 12730 92 Ave","On paved area, north shelter",,,,,,,,,,,Park Shelter - Portable,,,,12730,OPERATING,20030718095100,,20020227,0,,,,,"Robertson Drive Park, 12730 92 Ave",Park,49.169011,-122.870159
3,Shelters and Tables,"Table - Portable; William Beagle Park, 12944 92a Ave",north of playground,,,Steel,,,,,,,,Table - Portable,,,,12944,OPERATING,20101006075000,,20090301,0,,,,,"William Beagle Park, 12944 92A Ave",Park,49.170655,-122.863557
1,Gates,"Bollard; 122A - Greenbelt, 13810 18a Ave",At North end of asphalt path on 18A  Ave.,Bollard,,,,,,,,,,,,,,13810,OPERATING,20020719,,19950517,0,,,,,"122A - Greenbelt, 13810 18a Ave",,49.035848,-122.839303
1,Gates,"Bollard; 122E - Detention Pond, 1894 139a St",At end of asphalt path on 140 ST,Bollard,,,,,,,,,,,,,,01894,OPERATING,20020722,,19890516,0,,,,,"122E - Detention Pond / Bell Estates Park, 1894 139a St",,49.036638,-122.834532
3,Shelters and Tables,"Park Shelter #1 - Portable; Dominion Park, 8225 - 134 St","north of playground, west shelter",,,Wood,,,,,,,,Park Shelter - Portable,,,,08225,OPERATING,,,,0,,,,,"Dominion Park, 8225 134 St",Park,49.152062,-122.851849
3,Shelters and Tables,"Table #1 - Permanent; City Hall Grounds, 14245 56 Ave",east of east entrance to City Hall,,,Wood,,,,,,,,Table - Permanent,,,,14245,OPERATING,20051014165200,,,0,,,,,"City Hall Grounds, 14245 56 Ave",Land,49.105654,-122.827030
3,Shelters and Tables,"Table #16 - Permanent; Fleetwood Park, 15802 - 80 Ave",south of playground,,,,,,,,,,,Table - Permanent,,,,15802,OPERATING,20110615085400,,20100301,0,,,,,"Fleetwood Park, 15802 80 Ave",Park,49.147413,-122.783163
3,Shelters and Tables,"Table #17 - Permanent; Fleetwood Park, 15802 - 80 Ave",south of playground,,,,,,,,,,,Table - Permanent,,,,15802,OPERATING,20110615085700,,20100301,0,,,,,"Fleetwood Park, 15802 80 Ave",Park,49.147393,-122.782979
3,Shelters and Tables,"Table #18 - Permanent; Fleetwood Park, 15802 - 80 Ave",south of playground,,,,,,,,,,,Table - Permanent,,,,15802,OPERATING,20110615085800,,20100301,0,,,,,"Fleetwood Park, 15802 80 Ave",Park,49.147418,-122.782793
3,Shelters and Tables,"Park Shelter #3 - Permanent; South Surrey Athletic Park, 1925 148 St",at bike park,,,Wood,,,,,,,,Park Shelter - Permanent,,,,01925,OPERATING,20110720084500,,20030131,0,,,,,"South Surrey Athletic Park, 1925 148 St",Park,49.041497,-122.817915
1,Gates,"Bollard; Newton Athletic Park, 7395 - 128 St",SW corner of parking lot # 1,Bollard,,,,,,,,,,,,,,07395,OPERATING,,,20160601,,,,,,"Newton Athletic Park, 7395 128 St",Park,49.136485,-122.869881
1,Gates,"Bollard; South Surrey Athletic Park, 1925 148 St",Entrance to playground/water park pathways,Bollard,,Metal,,,,,,,,,,,,01925,OPERATING,,,20170901,,,,,,,,49.040273,-122.815745
3,Shelters and Tables,"Table #6 - Permanent; Bakerview Park, 1845 - 154 St",SW side of playground,,,Concrete,,,,,,,,Table - Permanent,,,,01845,OPERATING,,,,0,,,,,"Bakerview Park, 1845 154 St",Park,49.034998,-122.797593
1,Gates,"Bollard; South Surrey Athletic Park, 1925 148 St",Entrance to playground/water park pathways,Bollard,,Metal,,,,,,,,,,,,01925,OPERATING,,,20170901,,,,,,,,49.040269,-122.816498
1,Gates,"Bollard; Newton Athletic Park, 7395 - 128 St",SW corner of parking lot # 1,Bollard,,,,,,,,,,,,,,07395,OPERATING,,,20160601,,,,,,"Newton Athletic Park, 7395 128 St",Park,49.136470,-122.869857
2,Plumbing Fixtures,"Water Fountain; Moffat Memorial Park, 9434 - 122 St","South of Concession, ref # 1",,,,,,,,,,,Fountain,,,,09434,OPERATING,20100624100000,,,0,,,,,"Moffat Memorial Park, 9434 122 St",Park,49.174179,-122.882612
1,Gates,"Pedestrian Gate; South Surrey Athletic Park, 1925 148 St",entrance to playground/water park,Pedestrian,,Metal,,,,,,,,,,,,01925,OPERATING,,,20170601,,,,,,"South Surrey Athletic Park, 1925 148 St",Park,49.040740,-122.815888
2,Plumbing Fixtures,"Water Fountain; Tamanawis Park, 12515 64 Ave","@ ball diamonds, ref # 1",,,,,,,,,,,Fountain,,,,12515,OPERATING,20100624102400,,,0,,,,,"Tamanawis Park, 12515 64 Ave",Park,49.120465,-122.874677
2,Plumbing Fixtures,"Water Fountain; Erma Stephenson Park, 15920 110 Ave","on East wall of washroom, ref # 1",,,Metal,,,,,,,,Fountain,,,,15920,OPERATING,20100624103700,,20100621,0,,,,,"Erma Stephenson Park, 15920 110 Ave",Park,49.201790,-122.781630
1,Gates,"Bollard; Newton Athletic Park, 7395 - 128 St",SW corner of parking lot # 1,Bollard,,,,,,,,,,,,,,07395,OPERATING,,,20160601,,,,,,"Newton Athletic Park, 7395 128 St",Park,49.136498,-122.869882
1,Gates,"Bollard; Newton Pond, 13720 70 Ave",138 St Entrance (North),Bollard,,,,,,,,,,,,,,13720,OPERATING,,,20160526,,,,,,"Newton Pond, 13720 70 Ave",Park,49.129137,-122.838875
1,Gates,"Access Gate; Hi-Knoll Park, 19569 Colebrook Rd","SE corner of park, 196 St",Barrier - Single,,Metal,,,,,,,,,,,,19569,OPERATING,,,,,,,,,"Hi-Knoll Park, 19569 Colebrook Rd",Park,49.089538,-122.678018
1,Gates,"Bollard; Newton Pond, 13720 70 Ave",70 Ave and 136B St park entrance,Bollard,,,,,,,,,,,,,,13720,OPERATING,,,20160526,,,,,,"Newton Pond, 13720 70 Ave",Park,49.129951,-122.843224
6,Other,"Dog Fitness Course; Kennedy Park, 9058 Holt Rd",north loop,,,,,,,,,,,,,,,09058,OPERATING,,,,,,,,,"Kennedy Park, 9058 Holt Rd",,49.167604,-122.885415
6,Other,"Dog Fitness Course; Kennedy Park, 9058 Holt Rd",south loop,,,,,,,,,,,,,,,09058,OPERATING,,,,,,,,,"Kennedy Park, 9058 Holt Rd",,49.167245,-122.884765
6,Other,"Irrigation Box; Goldstone Park, 5850 146 St",NW corner of soccer 1,,,,,,,,,,,,,,,05850,OPERATING,,,,,,,,,"Goldstone Park, 5850 146 St",Park,49.109779,-122.816964
6,Other,"Irrigation Box x 3; Goldstone Park, 5850 146 St",North side of soccer 1,,,,,,,,,,,,,,,05850,OPERATING,,,,,,,,,"Goldstone Park, 5850 146 St",Park,49.109767,-122.816711
6,Other,"Irrigation Box; Goldstone Park, 5850 146 St",West side of soccer 1,,,,,,,,,,,,,,,05850,OPERATING,,,,,,,,,"Goldstone Park, 5850 146 St",Park,49.109494,-122.817207
6,Other,"Irrigation Box; Goldstone Park, 5850 146 St",West side of soccer 1,,,,,,,,,,,,,,,05850,OPERATING,,,,,,,,,"Goldstone Park, 5850 146 St",Park,49.109139,-122.817221
6,Other,"Irrigation Box; Goldstone Park, 5850 146 St",South east side of soccer 1,,,,,,,,,,,,,,,05850,OPERATING,,,,,,,,,"Goldstone Park, 5850 146 St",Park,49.108828,-122.816957
1,Gates,"Metal Locking Gate; Blackie Spit, 3136 McBride Ave",Blackie's Spit-McBride Ave. Parking Lot,Barrier - Double,,Metal,,,,,,,,,,,,03136,OPERATING,,,,0,,,,,"Blackie Spit, 3136 McBride Ave",Park,49.058901,-122.882393
0,Benches and Bleachers,"2 Fixed Location Benches; Dominion Park, 8225 - 134 St",Adjacent To Pathway,,,,0,Bench,,,,0,,,,,,08225,OPERATING,,,,0,,,,,"Dominion Park, 8225 134 St",,49.152227,-122.851588
0,Benches and Bleachers,"Bench; Hunter Park - 88A, 5480 - 184A St",Near middle of park,,,,0,Bench,,,,0,,,,,,05480,OPERATING,,,,0,,,,,"Hunter Park, 5480 184A St",,49.102080,-122.711031
0,Benches and Bleachers,"Concrete Bench; Northview Park, 11149 - 156 St",,,,,0,Bench,,,,0,,,,,,11149,OPERATING,,,,0,,,,,"Northview Park, 11149 156 St",,49.205016,-122.790053
3,Shelters and Tables,"Table #2 - Permanent; City Hall Grounds, 14245 56 Ave","grass area west of cafe, west table",,,Wood,,,,,,,,Table - Permanent,,,,14245,OPERATING,20051014165400,,,0,,,,,"City Hall Grounds, 14245 56 Ave",Land,49.105622,-122.826755
3,Shelters and Tables,"Table #3 - Permanent; City Hall Grounds, 14245 56 Ave","grass area west of cafe, south table",,,Wood,,,,,,,,Table - Permanent,,,,14245,OPERATING,20051014165500,,,0,,,,,"City Hall Grounds, 14245 56 Ave",Land,49.105534,-122.826661
3,Shelters and Tables,"Table #4 - Permanent; City Hall Grounds, 14245 56 Ave","grass area west of cafe, east table",,,Wood,,,,,,,,Table - Permanent,,,,14245,OPERATING,20051014165600,,,0,,,,,"City Hall Grounds, 14245 56 Ave",Land,49.105602,-122.826476
3,Shelters and Tables,"Table #5 - Permanent; City Hall Grounds, 14245 56 Ave",west of pond and waterfall,,,Wood,,,,,,,,Table - Permanent,,,,14245,OPERATING,20051014165700,,,0,,,,,"City Hall Grounds, 14245 56 Ave",Land,49.105227,-122.827066
1,Gates,"Bollard; 122E - Detention Pond, 1894 139a St",At middle of asphalt path on East side of lane,Bollard,,,,,,,,,,,,,,01894,OPERATING,20020722,,19890516,0,,,,,"122E - Detention Pond / Bell Estates Park, 1894 139a St",,49.036641,-122.835128
1,Gates,"Bollard; 122E - Detention Pond, 1894 139a St",At middle of asphalt path on West side of lane,Bollard,,,,,,,,,,,,,,01894,OPERATING,20020722,,19890516,0,,,,,"122E - Detention Pond / Bell Estates Park, 1894 139a St",,49.036636,-122.835217
1,Gates,"Bollard; Royal Heights Park, 9780 Crown Cres",At Crown Cr Entrance,Bollard,,Metal,,,,,,,,,,,,09780,OPERATING,,,20160510,,,,,,"Royal Heights Park, 9780 Crown Cres",,49.180193,-122.905379
3,Shelters and Tables,"Table #2 - Permanent; Unwin Park, 13313 - 68 Ave",East side of pool,,,Concrete,,,,,,,,Table - Permanent,,,,13313,OPERATING,,,,0,,,,,"Unwin Park, 13313 68 Ave",Park,49.126992,-122.854160
3,Shelters and Tables,"Table #3 - Permanent; Unwin Park, 13313 - 68 Ave",South side of pool,,,Concrete,,,,,,,,Table - Permanent,,,,13313,OPERATING,,,,0,,,,,"Unwin Park, 13313 68 Ave",Park,49.126872,-122.854592
3,Shelters and Tables,"Table #4 - Permanent; Unwin Park, 13313 - 68 Ave",South of waterplayground,,,Concrete,,,,,,,,Table - Permanent,,,,13313,OPERATING,,,,0,,,,,"Unwin Park, 13313 68 Ave",Park,49.126596,-122.853139
1,Gates,"Bollard; Royal Heights Park, 9780 Crown Cres",At 97A Ave entrance,Bollard,,Metal,,,,,,,,,,,,09780,OPERATING,,,,,,,,,"Royal Heights Park, 9780 Crown Cres",,49.179918,-122.904115
1,Gates,"2 Bicycle Baffles; Coyote Springs Park, 8108 164A St",At 165 St Entrance,Bicycle Baffle,,,,,,,,,,,,,,08108,OPERATING,,,,0,,,,,"Coyote Springs Park, 8108 164A St",,49.150124,-122.766105
1,Gates,"Bicycle Baffle; Coyote Springs Park, 8108 164A St",164A St Entrance,Bicycle Baffle,,,,,,,,,,,,,,08108,OPERATING,,,,0,,,,,"Coyote Springs Park, 8108 164A St",,49.150124,-122.766173
2,Plumbing Fixtures,"Water Fountain - Dog/Person; Blackie Spit, 3136 McBride Ave","at entrance to dog-off-leash area, ref # 1",,,,,,,,,,,Fountain,,,,03136,OPERATING,20040720102800,,20040902,0,,,,,"Blackie Spit, 3136 McBride Ave",Park,49.058463,-122.881006
2,Plumbing Fixtures,"Standpipe; Hawthorne Park, 10503 144 St","south of picnic shelters, ref # 1",,,,,,,,,,,,,,,10503,OPERATING,,,,,,,,,"Hawthorne Park, 10503 144 St",Park,49.193391,-122.826020
4,Stairs,"Wood Steps #2; Christopherson Steps - 120E, 2409 Christopherson Rd",bottom of steps,,,Wood,,,,,,,,,,,18,02409,OPERATING,,,,,,,,,"Christopherson Steps - 120E, 2409 Christopherson Rd",Park,49.045762,-122.883682
1,Gates,"Metal Locking Gate; Bakerview Park, 1845 - 154 St",North Entrance of Parking Lot,Barrier - Double,,Metal,,,,,,,,,,,,01845,OPERATING,,,,0,,,,,"Bakerview Park, 1845 154 St",,49.035632,-122.795871
6,Other,"Electrical Kiosk; Blackie Spit, 3136 McBride Ave",within west parking lot,,,,,,,,,,,,,,,03136,OPERATING,,,,,,,,,"Blackie Spit, 3136 McBride Ave",Park,49.058626,-122.881832
2,Plumbing Fixtures,"Water Fountain; Sunnyside Park, 15455 - 26 Ave","North of Washroom Building, ref # 1",,,,,,,,,,,Fountain,,,,15455,OPERATING,20100624102200,,,0,,,,,"Sunnyside Park, 15455 26 Ave",Park,49.049481,-122.794708
2,Plumbing Fixtures,"Water Fountain; Hawthorne Park, 10503 144 St","on E wall of washroom, ref # 1",,,Metal,,,,,,,,Fountain,,,,10503,OPERATING,20100624094500,,20100621,0,,,,,"Hawthorne Park, 10503 144 St",Park,49.193207,-122.824846
1,Gates,"Metal Locking Gate; Redwood Park, 17900 - 20 Ave",20th Avenue Entrance,Barrier - Single,,,,,,,,,,,,,,17900,OPERATING,,,,0,,,,,"Redwood Park, 17900 20 Ave",,49.038337,-122.726264
0,Benches and Bleachers,"Decorative Bench; The Glades, 561 172 St","In the park, bench ref # 8",,,Concrete,0,Bench,,,,0,,,,,,00561,OPERATING,,,,0,,,,,"The Glades, 561 172 St",,49.012046,-122.748155
0,Benches and Bleachers,"Fixed Location Bench; Cottonwood Park, 16144 - 78 Ave",N. Of Playground Next To Path,,,,0,Bench,,,,0,,,,,,16144,OPERATING,,,,0,,,,,"Cottonwood Park, 16144 78 Ave",,49.144938,-122.775654
0,Benches and Bleachers,"Fixed Location Bench; M.J. Norris Park, 6539 - 129A St",In Playground,,,,0,Bench,,,,0,,,,,,06539,OPERATING,,,,0,,,,,"M.J. Norris Park, 6539 129A St",,49.121627,-122.863796
0,Benches and Bleachers,"2 Fixed Location Benches; Meridian By The Sea Park, 2040 - 150 St",Next To Playground At S. End Of Park,,,,0,Bench,,,,0,,,,,,02040,OPERATING,,,,0,,,,,"Meridian By The Sea Park, 2040 150 St",,49.039095,-122.806476
0,Benches and Bleachers,"Fixed Location Bench; Puss in Boots Park, 7120 129A St",At N. End Of Site,,,,0,Bench,,,,0,,,,,,07120,OPERATING,,,,0,,,,,"Puss in Boots Park, 7120 129A St",,49.132548,-122.863520
0,Benches and Bleachers,"2 Permanent Benches; Meridian By The Sea Park, 2040 - 150 St",Next To Playground At S. End Of Park,,,,0,Bench,,,,0,,,,,,02040,OPERATING,,,,0,,,,,"Meridian By The Sea Park, 2040 150 St",,49.039140,-122.806476
0,Benches and Bleachers,"3 Fixed Location Benches; Dominion Park, 8225 - 134 St",Adjacent To Pathway,,,,0,Bench,,,,0,,,,,,08225,OPERATING,,,,0,,,,,"Dominion Park, 8225 134 St",,49.152182,-122.851588
0,Benches and Bleachers,"Fixed Location Bench; Douglas Park, 15044 - 99A Ave",Next To Playground,,,,0,Bench,,,,0,,,,,,15044,OPERATING,,,,0,,,,,"Douglas Park, 15044 99A Ave",,49.182628,-122.805470
0,Benches and Bleachers,"2 Fixed Location Benches; Amelia Adams Park, 8546 - 121A St",Centre Of Park Either Side Of Playground,,,,0,Bench,,,,0,,,,,,08546,OPERATING,,,,0,,,,,"Amelia Adams Park, 8546 121A St",,49.158248,-122.886442
0,Benches and Bleachers,"Fixed Location Bench; Parkwood Village Park, 12901 - 73 Ave",Next To Path Near Playground,,,,0,Bench,,,,0,,,,,,12901,OPERATING,,,,0,,,,,"Parkwood Village Park, 12901 73 Ave",,49.135694,-122.864898
0,Benches and Bleachers,"Bench; The Glades, 561 172 St","In the park, bench ref # 6",,,Metal,0,Bench,,,Garden,0,,,,,,00561,OPERATING,,,,0,,,,,"The Glades, 561 172 St",,49.011987,-122.746576
0,Benches and Bleachers,"Bench; The Glades, 561 172 St","In the park, bench ref # 7",,,Metal,0,Bench,,,Basic,0,,,,,,00561,OPERATING,,,,0,,,,,"The Glades, 561 172 St",,49.011826,-122.747210
0,Benches and Bleachers,"Backless Bench; The Glades, 561 172 St","In the park, bench ref # 9",,,Metal,0,Bench,,,,0,,,,,,00561,OPERATING,,,,0,,,,,"The Glades, 561 172 St",,49.011831,-122.748252
6,Other,"Electrical Outlet; Elgin Heritage Park, 13723 Crescent Road",along dock,,,,,,,,,,,,,,,13723,OPERATING,,,,,,,,,"Elgin Heritage Park, 13723 Crescent Rd",Park,49.066925,-122.844726
1,Gates,"Metal Locking Gate; Elgin Heritage Park, 13723 Crescent Road",at entrance to docks,Pedestrian,,Chain Link,,,,,,,,,,,,13723,OPERATING,,,,,,,,,"Elgin Heritage Park, 13723 Crescent Rd",Park,49.066604,-122.841972
6,Other,"Electrical Outlet; Elgin Heritage Park, 13723 Crescent Road",along dock,,,,,,,,,,,,,,,13723,OPERATING,,,,,,,,,"Elgin Heritage Park, 13723 Crescent Rd",Park,49.066750,-122.843135
6,Other,"Electrical Outlet; Elgin Heritage Park, 13723 Crescent Road",along dock,,,,,,,,,,,,,,,13723,OPERATING,,,,,,,,,"Elgin Heritage Park, 13723 Crescent Rd",Park,49.066602,-122.842011
6,Other,"Electrical Outlet; Elgin Heritage Park, 13723 Crescent Road",along dock,,,,,,,,,,,,,,,13723,OPERATING,,,,,,,,,"Elgin Heritage Park, 13723 Crescent Rd",Park,49.066966,-122.844960
6,Other,"Electrical Outlet; Elgin Heritage Park, 13723 Crescent Road",along dock,,,,,,,,,,,,,,,13723,OPERATING,,,,,,,,,"Elgin Heritage Park, 13723 Crescent Rd",Park,49.066719,-122.842868
6,Other,"Electrical Outlet; Elgin Heritage Park, 13723 Crescent Road",along dock,,,,,,,,,,,,,,,13723,OPERATING,,,,,,,,,"Elgin Heritage Park, 13723 Crescent Rd",Park,49.066654,-122.842343
6,Other,"Electrical Outlet; Elgin Heritage Park, 13723 Crescent Road",along dock,,,,,,,,,,,,,,,13723,OPERATING,,,,,,,,,"Elgin Heritage Park, 13723 Crescent Rd",Park,49.066891,-122.844447
6,Other,"Electrical Outlet; Elgin Heritage Park, 13723 Crescent Road",along dock,,,,,,,,,,,,,,,13723,OPERATING,,,,,,,,,"Elgin Heritage Park, 13723 Crescent Rd",Park,49.066771,-122.843417
6,Other,"Electrical Outlet; Elgin Heritage Park, 13723 Crescent Road",along dock,,,,,,,,,,,,,,,13723,OPERATING,,,,,,,,,"Elgin Heritage Park, 13723 Crescent Rd",Park,49.066904,-122.844444
6,Other,"Electrical Outlet; Elgin Heritage Park, 13723 Crescent Road",along dock,,,,,,,,,,,,,,,13723,OPERATING,,,,,,,,,"Elgin Heritage Park, 13723 Crescent Rd",Park,49.066615,-122.842007
6,Other,"Electrical Kiosk/Panel; Elgin Heritage Park, 13723 Crescent Road",along dock 2 of 3,,,,,,,,,,,,,,,13723,OPERATING,,,,,,,,,"Elgin Heritage Park, 13723 Crescent Rd",Park,49.066798,-122.843657
6,Other,"Electrical Kiosk/Panel; Elgin Heritage Park, 13723 Crescent Road",along dock 1 of 3,,,,,,,,,,,,,,,13723,OPERATING,,,,,,,,,"Elgin Heritage Park, 13723 Crescent Rd",Park,49.066667,-122.842560
6,Other,"Electrical Outlet; Elgin Heritage Park, 13723 Crescent Road",along dock,,,,,,,,,,,,,,,13723,OPERATING,,,,,,,,,"Elgin Heritage Park, 13723 Crescent Rd",Park,49.066845,-122.843921
3,Shelters and Tables,"Table - Permanent; Pioneer Park, 6572 - 133 St",N.E. Corner of Playground,,,Wood,,,,,,,,Table - Permanent,,,,06572,OPERATING,,,,0,,,,,"Pioneer Park, 6572 133 St",Park,49.124195,-122.854181
3,Shelters and Tables,"Park Shelter #1- Permanent; Hazelnut Meadows Community Park, 14069 68 Ave",East of Pk/Lot,,,Aluminum,,,,,,,,Park Shelter - Permanent,,,,14069,OPERATING,,,19980101,0,,,,,"Hazelnut Meadows Community Park, 14069 68 Ave",Park,49.127090,-122.833376
3,Shelters and Tables,"Table #1 - Permanent; Clayton Park, 18513 - 70 Ave",south of playground,,,Concrete,,,,,,,,Table - Permanent,,,,18513,OPERATING,,,,0,,,,,"Clayton Park, 18513 70 Ave",Park,49.130939,-122.708789
3,Shelters and Tables,"Table #2 - Permanent; Clayton Park, 18513 - 70 Ave",south of playground,,,Concrete,,,,,,,,Table - Permanent,,,,18513,OPERATING,20051012163900,,,0,,,,,"Clayton Park, 18513 70 Ave",Park,49.130936,-122.708752
3,Shelters and Tables,"Table #3 - Permanent; Clayton Park, 18513 - 70 Ave",east of playground,,,Concrete,,,,,,,,Table - Permanent,,,,18513,OPERATING,20051012164100,,,0,,,,,"Clayton Park, 18513 70 Ave",Park,49.131176,-122.708030
3,Shelters and Tables,"Table #4 - Permanent; Clayton Park, 18513 - 70 Ave",east of playground,,,Concrete,,,,,,,,Table - Permanent,,,,18513,OPERATING,20051012164200,,,0,,,,,"Clayton Park, 18513 70 Ave",Park,49.131185,-122.707995
1,Gates,"2 Bicycle Baffles; 110D - Walkway, 2459 - 124 St",At 123A St Entrance To Site,Bicycle Baffle,,,,,,,,,,,,,,02459,OPERATING,,,,0,,,,,"110D - Walkway, 2459 124 St",,49.046891,-122.879620
1,Gates,"12 Bicycle Baffles; 104G - Greenbelt, 15496 40 Ave",2 at each end of three paths,Bicycle Baffle,,,,,,,,,,,,,,15496,OPERATING,20060419,,20060101,0,,,,,"104G - Greenbelt, 15496 40 Ave",,49.072597,-122.793383
3,Shelters and Tables,"Table #7 - Permanent; Clayton Park, 18513 - 70 Ave",north of games court at north side of park,,,Concrete,,,,,,,,Table - Permanent,,,,18513,OPERATING,,,,0,,,,,"Clayton Park, 18513 70 Ave",Park,49.133031,-122.705630
3,Shelters and Tables,"Park Shelter - Permanent; Clayton Park, 18513 - 70 Ave",south of tennis courts,,,Concrete,,,,,,,,Park Shelter - Permanent,,,,18513,OPERATING,,,19980101,0,,,,,"Clayton Park, 18513 70 Ave",Park,49.131372,-122.708937
3,Shelters and Tables,"Table - Permanent; Heritage Woods Park, 13468 - 63 Ave",next to playground,,,Metal,,,,,,,,Table - Permanent,,,,13468,OPERATING,,,,0,,,,,"Heritage Woods Park, 13468 63 Ave",Park,49.116680,-122.848848
3,Shelters and Tables,"Park Shelter - Permanent; Sullivan Park, 6272 152 St",South of Play-Adv,,,Aluminum,,,,,,,,Park Shelter - Permanent,,,,06272,OPERATING,,,19980101,0,,,,,"Sullivan Park, 6272 152 St",Park,49.115875,-122.796308
3,Shelters and Tables,"Table #1 - Permanent; Sullivan Park, 6272 152 St",152 Str. West-Parallel to Fire Hall,,,Wood,,,,,,,,Table - Permanent,,,,06272,OPERATING,,,,0,,,,,"Sullivan Park, 6272 152 St",Park,49.116944,-122.800462
2,Plumbing Fixtures,"Water Fountain; Robertson Drive Park, 12730 - 92 Ave","West of Playground on Paved Path, ref #1",,,,,,,,,,,Fountain,,,,12730,OPERATING,20100624165600,,,0,,,,,"Robertson Drive Park, 12730 92 Ave",Park,49.168608,-122.870674
2,Plumbing Fixtures,"Water Fountain; Newton Athletic Park, 7395 128 St","east wall of North washroom building, ref # 1",,,,,,,,,,,Fountain,,,,07395,OPERATING,20100624165900,,20080505,0,,,,,"Newton Athletic Park, 7395 128 St",Park,49.138701,-122.870537
2,Plumbing Fixtures,"Water Fountain; Newton Athletic Park, 7395 128 St","west wall of pavilion, ref # 2",,,,,,,,,,,Fountain,,,,07395,OPERATING,20100624170000,,20090505,0,,,,,"Newton Athletic Park, 7395 128 St",Park,49.137372,-122.869942
2,Plumbing Fixtures,"Water Fountain; Newton Athletic Park, 7395 128 St","north side of Kwantlen stadium seating, ref # 3",,,,,,,,,,,Fountain,,,,07395,OPERATING,20110810142900,,20110504,0,,,,,"Newton Athletic Park, 7395 128 St",Park,49.138306,-122.871579
2,Plumbing Fixtures,"Water Fountain; Newton Athletic Park, 7395 128 St","south side of Kwantlen stadium seating, ref # 4",,,,,,,,,,,Fountain,,,,07395,OPERATING,20110810142900,,20110504,0,,,,,"Newton Athletic Park, 7395 128 St",Park,49.137912,-122.871568
0,Benches and Bleachers,"Bench; The Glades, 561 172 St","In the park, bench ref # 11",,,Metal,0,Bench,,,Basic,0,,,,,,00561,OPERATING,,,,0,,,,,"The Glades, 561 172 St",,49.011683,-122.748832
0,Benches and Bleachers,"Concrete/wood Bench; The Glades, 561 172 St","In the park, bench ref # 12",,,Metal,0,Bench,,,,0,,,,,,00561,OPERATING,,,,0,,,,,"The Glades, 561 172 St",,49.011611,-122.748527
0,Benches and Bleachers,"Bench; The Glades, 561 172 St","In the park, bench ref # 13",,,Metal,0,Bench,,,Basic,0,,,,,,00561,OPERATING,,,,0,,,,,"The Glades, 561 172 St",,49.011663,-122.747566
0,Benches and Bleachers,"Bench; The Glades, 561 172 St","In the park, bench ref # 14",,,Metal,0,Bench,,,Basic,0,,,,,,00561,OPERATING,,,20140227,0,,,,,"The Glades, 561 172 St",,49.011687,-122.747603
0,Benches and Bleachers,"Concrete/wood Bench; The Glades, 561 172 St","In the park, bench ref # 15",,,Metal,0,Bench,,,,0,,,,,,00561,OPERATING,,,,0,,,,,"The Glades, 561 172 St",,49.011675,-122.747358
0,Benches and Bleachers,"Bench; The Glades, 561 172 St","In the park, bench ref # 16",,,Metal,0,Bench,,,Basic,0,,,,,,00561,OPERATING,,,,0,,,,,"The Glades, 561 172 St",,49.011330,-122.747856
0,Benches and Bleachers,"Bench; The Glades, 561 172 St","In the park, bench ref # 17",,,Metal,0,Bench,,,Basic,0,,,,,,00561,OPERATING,,,,0,,,,,"The Glades, 561 172 St",,49.011325,-122.747766
0,Benches and Bleachers,"Decorative Bench; The Glades, 561 172 St","In the park, bench ref # 18",,,Stone,0,Bench,,,,0,,,,,,00561,OPERATING,,,,0,,,,,"The Glades, 561 172 St",,49.011202,-122.748555
0,Benches and Bleachers,"Decorative Bench; The Glades, 561 172 St","In the park, bench ref # 19",,,Stone,0,Bench,,,,0,,,,,,00561,OPERATING,,,,0,,,,,"The Glades, 561 172 St",,49.011353,-122.748795
0,Benches and Bleachers,"Bench; R.A. Nicholson Park, 12140 - 75A Ave",,,,,0,Bench,,,,0,,,,,,12140,OPERATING,,,,0,,,,,"R.A. Nicholson Park, 12140 75A Ave",,49.139335,-122.886710
0,Benches and Bleachers,"Fixed Location Bench; Beaver Creek Heights Park, 6722 122A St",SW corner of playground,,,,0,Bench,,,Basic,0,,,,,,12270,OPERATING,,,,0,,,,,"Beaver Creek Heights Park, 6722 122A St",Park,49.125012,-122.882979
0,Benches and Bleachers,"4 No Back Fixed Benches; Maple Green Park, 8959 - 150 St",Perimeter of Playground,,,,0,Bench,,,,0,,,,,,08959,OPERATING,,,,0,,,,,"Maple Green Park, 8959 150 St",,49.165109,-122.807144
0,Benches and Bleachers,"4 Permanent Benches; Maple Green Park, 8959 - 150 St",Perimeter of Playground,,,,0,Bench,,,,0,,,,,,08959,OPERATING,,,,0,,,,,"Maple Green Park, 8959 150 St",,49.165154,-122.807144
6,Other,"Electrical Outlet; Elgin Heritage Park, 13723 Crescent Road",along dock,,,,,,,,,,,,,,,13723,OPERATING,,,,,,,,,"Elgin Heritage Park, 13723 Crescent Rd",Park,49.066685,-122.842593
6,Other,"Electrical Outlet; Elgin Heritage Park, 13723 Crescent Road",along dock,,,,,,,,,,,,,,,13723,OPERATING,,,,,,,,,"Elgin Heritage Park, 13723 Crescent Rd",Park,49.066864,-122.844186
6,Other,"Electrical Outlet; Elgin Heritage Park, 13723 Crescent Road",along dock,,,,,,,,,,,,,,,13723,OPERATING,,,,,,,,,"Elgin Heritage Park, 13723 Crescent Rd",Park,49.066802,-122.843677
6,Other,"Electrical Kiosk/Panel; Elgin Heritage Park, 13723 Crescent Road",along dock 3 of 3,,,,,,,,,,,,,,,13723,OPERATING,,,,,,,,,"Elgin Heritage Park, 13723 Crescent Rd",Park,49.066905,-122.844556
6,Other,"Electrical Outlet; Elgin Heritage Park, 13723 Crescent Road",along dock,,,,,,,,,,,,,,,13723,OPERATING,,,,,,,,,"Elgin Heritage Park, 13723 Crescent Rd",Park,49.066672,-122.842597
6,Other,"Electrical Outlet; Elgin Heritage Park, 13723 Crescent Road",along dock,,,,,,,,,,,,,,,13723,OPERATING,,,,,,,,,"Elgin Heritage Park, 13723 Crescent Rd",Park,49.066938,-122.844722
6,Other,"Electrical Outlet; Elgin Heritage Park, 13723 Crescent Road",along dock,,,,,,,,,,,,,,,13723,OPERATING,,,,,,,,,"Elgin Heritage Park, 13723 Crescent Rd",Park,49.066815,-122.843674
6,Other,"Electrical Outlet; Elgin Heritage Park, 13723 Crescent Road",along dock,,,,,,,,,,,,,,,13723,OPERATING,,,,,,,,,"Elgin Heritage Park, 13723 Crescent Rd",Park,49.066640,-122.842346
6,Other,"Electrical Outlet; Elgin Heritage Park, 13723 Crescent Road",along dock,,,,,,,,,,,,,,,13723,OPERATING,,,,,,,,,"Elgin Heritage Park, 13723 Crescent Rd",Park,49.066832,-122.843924
6,Other,"Electrical Outlet; Elgin Heritage Park, 13723 Crescent Road",along dock,,,,,,,,,,,,,,,13723,OPERATING,,,,,,,,,"Elgin Heritage Park, 13723 Crescent Rd",Park,49.066877,-122.844182
6,Other,"Electrical Outlet; Elgin Heritage Park, 13723 Crescent Road",along dock,,,,,,,,,,,,,,,13723,OPERATING,,,,,,,,,"Elgin Heritage Park, 13723 Crescent Rd",Park,49.066952,-122.844963
6,Other,"Electrical Outlet; Elgin Heritage Park, 13723 Crescent Road",along dock,,,,,,,,,,,,,,,13723,OPERATING,,,,,,,,,"Elgin Heritage Park, 13723 Crescent Rd",Park,49.066736,-122.843138
6,Other,"Electrical Outlet; Elgin Heritage Park, 13723 Crescent Road",along dock,,,,,,,,,,,,,,,13723,OPERATING,,,,,,,,,"Elgin Heritage Park, 13723 Crescent Rd",Park,49.066705,-122.842872
3,Shelters and Tables,"Table #3 - Permanent; Sullivan Park, 6272 152 St",152 Str. N.W.-Behind Sullivan Hall,,,Wood,,,,,,,,Table - Permanent,,,,06272,OPERATING,,,,0,,,,,"Sullivan Park, 6272 152 St",Park,49.116997,-122.799811
3,Shelters and Tables,"Table #1 - Permanent; Cloverdale Athletic Park, 6330 - 168 St",west of southern playground,,,,,,,,,,,Table - Permanent,,,,06330,OPERATING,,,,0,,,,,"Cloverdale Athletic Park, 6330 168 St",Park,49.115431,-122.754086
3,Shelters and Tables,"Table #2 - Permanent; Cloverdale Athletic Park, 6330 - 168 St",west of southern playground,,,Metal,,,,,,,,Table - Permanent,,,,06330,OPERATING,,,,0,,,,,"Cloverdale Athletic Park, 6330 168 St",Park,49.115545,-122.754193
3,Shelters and Tables,"Table #3 - Permanent; Cloverdale Athletic Park, 6330 168 St",west of southern playground,,,Metal,,,,,,,,Table - Permanent,,,,06330,OPERATING,20051012171200,,,0,,,,,"Cloverdale Athletic Park, 6330 168 St",Park,49.115550,-122.753941
3,Shelters and Tables,"Table #4 - Permanent; Cloverdale Athletic Park, 6330 168 St",west of water playground,,,Metal,,,,,,,,Table - Permanent,,,,06330,OPERATING,20051012171300,,,0,,,,,"Cloverdale Athletic Park, 6330 168 St",Park,49.115780,-122.753753
3,Shelters and Tables,"Table #5 - Permanent; Cloverdale Athletic Park, 6330 168 St",northwest of water playground,,,Metal,,,,,,,,Table - Permanent,,,,06330,OPERATING,20051012171400,,,0,,,,,"Cloverdale Athletic Park, 6330 168 St",Park,49.116064,-122.753472
3,Shelters and Tables,"Table #6 - Permanent; Cloverdale Athletic Park, 6330 168 St",northeast of water playground,,,Metal,,,,,,,,Table - Permanent,,,,06330,OPERATING,20051012171500,,,0,,,,,"Cloverdale Athletic Park, 6330 168 St",Park,49.116032,-122.753066
3,Shelters and Tables,"Table #7 - Permanent; Cloverdale Athletic Park, 6330 168 St",east of southern playground,,,Metal,,,,,,,,Table - Permanent,,,,06330,OPERATING,20051012171600,,,0,,,,,"Cloverdale Athletic Park, 6330 168 St",Park,49.115444,-122.752868
3,Shelters and Tables,"Park Shelter #1 - Portable; Cloverdale Athletic Park, 6330 168 St",just north of waterplayground,,,Metal,,,,,,,,Park Shelter - Portable,,,,06330,OPERATING,20050930111700,,20041001,0,,,,,"Cloverdale Athletic Park, 6330 168 St",Park,49.116164,-122.753299
3,Shelters and Tables,"Table - Permanent; Greenaway Park, 17905 - 60 Ave",Adjacent to parking lot,,,Metal,,,,,,,,Table - Permanent,,,,17905,OPERATING,,,,0,,,,,"Greenaway Park, 17905 60 Ave",Park,49.111797,-122.727095
2,Plumbing Fixtures,"Stand Pipe; Holly Park, 10706 148 St",within community garden,Stand Pipes,,,,,,,,,,,,,,10706,OPERATING,,,,,,,,,"Holly Park, 10706 148 St",Park,49.197433,-122.810881
3,Shelters and Tables,"Table - Permanent; McKenzie Park, 5888 - 184B St",,,,,,,,,,,,Table - Permanent,,,,05888,OPERATING,,,,0,,,,,"McKenzie Park, 5888 184B St",Park,49.109447,-122.709981
6,Other,"Bike Rack; Blackie Spit, 3136 McBride Ave",along P7 near pier,,,Metal,,,,,,,,,,,,03136,OPERATING,,,,,,,,,"Blackie Spit, 3136 McBride Ave",Park,49.059320,-122.883158
4,Stairs,"Wood Steps #1; Christopherson Steps - 120E, 2409 Christopherson Rd",top of steps,,,Wood,,,,,,,,,,,17,02409,OPERATING,,,,,,,,,"Christopherson Steps - 120E, 2409 Christopherson Rd",Park,49.045769,-122.883366
6,Other,"Outdoor Shower; Blackie Spit, 3136 McBride Ave",along P4 near Wickson Rd,,,,,,,,,,,,,,,03136,OPERATING,,,,,,,,,"Blackie Spit, 3136 McBride Ave",Park,49.059388,-122.883171
0,Benches and Bleachers,"2 Fixed Location Benches; J.R. Douglas Park, 10885 - 162B St",At Playground Near 162B St Entrance,,,,0,Bench,,,,0,,,,,,10885,OPERATING,,,,0,,,,,"J.R. Douglas Park, 10885 162B St",,49.200409,-122.771153
0,Benches and Bleachers,"Permanent Wood Bench; Sullivan Park, 6272 - 152 St",Dia-SB 1/2/4/,,,,0,Bench,,,,0,,,,,,06272,OPERATING,,,,0,,,,,"Sullivan Park, 6272 152 St",,49.116927,-122.800740
0,Benches and Bleachers,"Permanent Plastic Bench; Sullivan Park, 6272 - 152 St",Dia-SB 1/2/4/,,,,0,Bench,,,,0,,,,,,06272,OPERATING,,,,0,,,,,"Sullivan Park, 6272 152 St",,49.116927,-122.800671
0,Benches and Bleachers,"2 Permanent Benches; J.R. Douglas Park, 10885 - 162B St",At Playground Near 162B St Entrance,,,,0,Bench,,,,0,,,,,,10885,OPERATING,,,,0,,,,,"J.R. Douglas Park, 10885 162B St",,49.200454,-122.771153
0,Benches and Bleachers,"Fixed Location Bench; Port Kells Park, 19340 - 88 Ave",Dia-SB 1,,,,0,Bench,,,,0,,,,,,19340,OPERATING,,,,0,,,,,"Port Kells Park, 19340 88 Ave",,49.162687,-122.686812
0,Benches and Bleachers,"Bench; Port Kells Park, 19340 - 88 Ave",Dia-SB 1,,,,0,Bench,,,,0,,,,,,19340,OPERATING,,,,0,,,,,"Port Kells Park, 19340 88 Ave",,49.162732,-122.686812
0,Benches and Bleachers,"Fixed Location Bench; Queen Mary Park, 8972 - Queen Mary Blvd",Along Pathway,,,,0,Bench,,,,0,,,,,,08972,OPERATING,,,,0,,,,,"Queen Mary Park, 8972 Queen Mary Blvd",,49.166028,-122.860679
0,Benches and Bleachers,"Permanent Bench on Stone Blocks; Redwood Park, 17900 - 20 Ave",Treehouse,,,,0,Bench,,,,0,,,,,,17900,OPERATING,,,,0,,,,,"Redwood Park, 17900 20 Ave",,49.035917,-122.726317
0,Benches and Bleachers,"2 Fixed Location Benches; Redwood Park, 17900 - 20 Ave",Treehouse,,,,0,Bench,,,,0,,,,,,17900,OPERATING,,,,0,,,,,"Redwood Park, 17900 20 Ave",,49.035872,-122.726317
0,Benches and Bleachers,"Permanent Wood Bench; Robson Park, 12576 - 100 Ave",Dia-BB 1,,,,0,Bench,,,,0,,,,,,12576,OPERATING,,,,0,,,,,"Robson Park, 12576 100 Ave",,49.184373,-122.873685
0,Benches and Bleachers,"Concrete Bench; The Glades, 561 172 St","In the park, bench ref # 20",,,Concrete,0,Bench,,,,0,,,,,,00561,OPERATING,,,,0,,,,,"The Glades, 561 172 St",,49.011297,-122.746846
0,Benches and Bleachers,"Concrete Bench; The Glades, 561 172 St","In the park, bench ref # 21",,,Concrete,0,Bench,,,,0,,,,,,00561,OPERATING,,,,0,,,,,"The Glades, 561 172 St",,49.011783,-122.746616
6,Other,"View Platform; The Glades, 561 172 St",next to pond,,,Wood,0,,,,,0,,,,,,00561,OPERATING,,,,0,,,,,"The Glades, 561 172 St",,49.011273,-122.747968
6,Other,"Electrical Outlet; Elgin Heritage Park, 13723 Crescent Road",along dock,,,,,,,,,,,,,,,13723,OPERATING,,,,,,,,,"Elgin Heritage Park, 13723 Crescent Rd",Park,49.066784,-122.843413
1,Gates,"Pedestrian Gate; South Surrey Athletic Park, 1925 148 St",entrance to playground/water park,Pedestrian,,Metal,,,,,,,,,,,,01925,OPERATING,,,20170601,,,,,,"South Surrey Athletic Park, 1925 148 St",Park,49.040717,-122.816572
1,Gates,"Pedestrian Gate; South Surrey Athletic Park, 1925 148 St",entrance to playground/water park,Pedestrian,,Metal,,,,,,,,,,,,01925,OPERATING,,,20170601,,,,,,"South Surrey Athletic Park, 1925 148 St",Park,49.040552,-122.815739
6,Other,"Leaning Rail; South Surrey Athletic Park, 1925 148 St",west side of skate park,,,,,,,,,,,,,,,01925,OPERATING,,,20151103,,,,,,"South Surrey Athletic Park, 1925 148 St",Park,49.038924,-122.818700
6,Other,"Leaning Rail; South Surrey Athletic Park, 1925 148 St",west side of skate park,,,,,,,,,,,,,,,01925,OPERATING,,,20151103,,,,,,"South Surrey Athletic Park, 1925 148 St",Park,49.038887,-122.818702
6,Other,"Leaning Rail; South Surrey Athletic Park, 1925 148 St",east side of skate park,,,,,,,,,,,,,,,01925,OPERATING,,,20151103,,,,,,"South Surrey Athletic Park, 1925 148 St",Park,49.038861,-122.818155
6,Other,"Expression Board; South Surrey Athletic Park, 1925 148 St",south side of skate park,,,,,,,,,,,,,,,01925,OPERATING,,,20151103,,,,,,"South Surrey Athletic Park, 1925 148 St",Park,49.038703,-122.818416
6,Other,"Expression Board; South Surrey Athletic Park, 1925 148 St",south side of skate park,,,,,,,,,,,,,,,01925,OPERATING,,,20151103,,,,,,"South Surrey Athletic Park, 1925 148 St",Park,49.038703,-122.818261
6,Other,Railing around decking,,,,,,,,,,,,,,,,,OPERATING,,,,,,,,,,,49.117318,-122.799380
6,Other,"Primary Chamber; South Surrey Athletic Park, 1925 148 St","Along Rotary Way, south end of Softball City complex",Irrigation Component,,,,,,,,,,,,,,01925,OPERATING,,,,,,,,,"South Surrey Athletic Park, 1925 148 St",Park,49.042142,-122.815587
6,Other,"Electronic Score Board; South Surrey Athletic Park, 1925 148 St",Outfield of Baseball 5,,,,,,,,,,,,,,,01925,OPERATING,,,,,,,,,"South Surrey Athletic Park, 1925 148 St",Park,49.044019,-122.814422
6,Other,"Controller unit; South Surrey Athletic Park, 1925 148 St",Next to Softball City main building,Irrigation Component,,,,,,,,,,,,,,01925,OPERATING,,,,,,,,,"South Surrey Athletic Park, 1925 148 St",Park,49.043162,-122.815578
1,Gates,"Bicycle Baffle; Coyote Springs Park, 8108 164A St",164A St Entrance,Bicycle Baffle,,,,,,,,,,,,,,08108,OPERATING,,,,0,,,,,"Coyote Springs Park, 8108 164A St",,49.150169,-122.766173
1,Gates,"12 Bicycle Baffles; 104G - Greenbelt, 15496 40 Ave",2 at each end of three paths,Bicycle Baffle,,,,,,,,,,,,,,15496,OPERATING,20060419,,20060101,0,,,,,"104G - Greenbelt, 15496 40 Ave",,49.072358,-122.793348
3,Shelters and Tables,"Table #3 - Portable; Elgin Heritage Park, 13723 - Crescent Rd",in grass area north of farmhouse,,,Concrete,,,,,,,,Table - Portable,,,,13723,OPERATING,20051013075100,,,0,,,,,"Elgin Heritage Park, 13723 Crescent Rd",Park,49.065429,-122.841917
3,Shelters and Tables,"Park Shelter #1 - Permanent; Elgin Heritage Park, 13723 Crescent Road","W section of park, west shelter",,,Wood,,,,,,,,Park Shelter - Permanent,,,,13723,OPERATING,20000906082000,,19990906,0,,,,,"Elgin Heritage Park, 13723 Crescent Rd",Park,49.063051,-122.847620
3,Shelters and Tables,"Park Shelter #2 - Permanent; Elgin Heritage Park, 13723 Crescent Road","W section of park, east shelter",,,Wood,,,,,,,,Park Shelter - Permanent,,,,13723,OPERATING,20000906082100,,19990906,0,,,,,"Elgin Heritage Park, 13723 Crescent Rd",Park,49.063032,-122.847490
3,Shelters and Tables,"Table - Permanent; Alexandra Tot-Lot, 12210 - Agar St",NW of playground,,,Metal,,,,,,,,Table - Permanent,,,,12210,OPERATING,,,,0,,,,,"Alexandra Tot-Lot, 12210 Agar St",Park,49.056054,-122.884225
1,Gates,"12 Bicycle Baffles; 104G - Greenbelt, 15496 40 Ave",2 at each end of three paths,Bicycle Baffle,,,,,,,,,,,,,,15496,OPERATING,20060419,,20060101,0,,,,,"104G - Greenbelt, 15496 40 Ave",,49.072110,-122.792689
1,Gates,"12 Bicycle Baffles; 104G - Greenbelt, 15496 40 Ave",2 at each end of three paths,Bicycle Baffle,,,,,,,,,,,,,,15496,OPERATING,20060419,,20060101,0,,,,,"104G - Greenbelt, 15496 40 Ave",,49.071558,-122.792565
3,Shelters and Tables,"Table #6 - Permanent; Unwin Park, 13313 - 68 Ave","Southwest of waterplayground, west table",,,Wood,,,,,,,,Table - Permanent,,,,13313,OPERATING,20051014074200,,,0,,,,,"Unwin Park, 13313 68 Ave",Park,49.126511,-122.853739
3,Shelters and Tables,"Table #7 - Permanent; Unwin Park, 13313 - 68 Ave","Southwest of waterplayground, east table",,,Wood,,,,,,,,Table - Permanent,,,,13313,OPERATING,20051014074400,,,0,,,,,"Unwin Park, 13313 68 Ave",Park,49.126497,-122.853708
6,Other,"Electrical Kiosk; Fun Fun Park, 1472 128 St",adjacent to benches ref 5 and 6,,,,,,,,,,,,,,,01472,OPERATING,,,,,,,,,"Fun Fun Park, 1472 128 St",Park,49.029137,-122.866377
0,Benches and Bleachers,"Wood Bleachers; Crescent Beach, 12160 Beecher St",Cresent-West of Sullivan Str.,,,Wood,0,Bleacher,,,,0,,,,,,12160,OPERATING,,,,0,,,,,"Crescent Beach, 12160 Beecher St",,49.052079,-122.884842
0,Benches and Bleachers,"Tennis Bench; South Surrey Athletic Park, 1925 148 St",Tennis 1-4,,,,,Bench,,,,,,,,,,01925,OPERATING,,,20160401,,,,,,"South Surrey Athletic Park, 1925 148 St",Park,49.040964,-122.817969
0,Benches and Bleachers,"Fixed Location Bench; Sunnyside Park, 15455 - 26 Ave",Dia-SB 1,,,,0,Bench,,,,0,,,,,,15455,OPERATING,,,,0,,,,,"Sunnyside Park, 15455 26 Ave",,49.050029,-122.795205
0,Benches and Bleachers,"Tennis Bench; South Surrey Athletic Park, 1925 148 St",Tennis 1-3,,,,,Bench,,,,,,,,,,01925,OPERATING,,,20160401,,,,,,"South Surrey Athletic Park, 1925 148 St",Park,49.041004,-122.818410
0,Benches and Bleachers,"Tennis Bench; South Surrey Athletic Park, 1925 148 St",Tennis 1-2,,,,,Bench,,,,,,,,,,01925,OPERATING,,,20160401,,,,,,"South Surrey Athletic Park, 1925 148 St",Park,49.040984,-122.818451
0,Benches and Bleachers,"Tennis Bench; South Surrey Athletic Park, 1925 148 St",Tennis 1-1,,,,,Bench,,,,,,,,,,01925,OPERATING,,,20160401,,,,,,"South Surrey Athletic Park, 1925 148 St",Park,49.040987,-122.818902
0,Benches and Bleachers,"Bench; Kiyo Park, 9050 140 St","along P2, ref # 1",,,Wood,,Bench,N,,Surrey,,,,,,,09050,OPERATING,,,20140306,,,,,,"Kiyo Park, 9050 140 St",,49.167050,-122.834239
0,Benches and Bleachers,"Bench; Poplar Park, 13074 - 112 Ave","west side of playground, ref # 1",,,Wood,,Bench,N,,Surrey,,,,,,,13074,OPERATING,,,20140306,,,,,,"Poplar Park, 13074 112 Ave",,49.205108,-122.859561
0,Benches and Bleachers,"Bench; Poplar Park, 13074 - 112 Ave","north side of playground, ref # 2",,,Wood,,Bench,N,,Surrey,,,,,,,13074,OPERATING,,,20140306,,,,,,"Poplar Park, 13074 112 Ave",,49.205187,-122.859432
6,Other,"Ornamental Pagoda; Bear Creek Park, 13750 88 Ave","Asian Bed at south end of Bear Creek Gardens, along P20",,,Steel,,,,,,,,,,,,13750,OPERATING,,,20110515,,,,,,"Bear Creek Park, 13750 88 Ave",,49.158667,-122.838506
0,Benches and Bleachers,"Bench; Surrey Public Wharf, 11731 130 St","on the wharf, bench ref # 2",,,,,Bench,N,,Surrey,,,,,,,11731,OPERATING,,,20140408,,,,,,"Surrey Public Wharf, 11731 130 St",Park,49.216651,-122.862101
0,Benches and Bleachers,"Bench; Surrey Public Wharf, 11731 130 St","on the wharf, bench ref # 1",,,,,Bench,N,,Surrey,,,,,,,11731,OPERATING,,,20140408,,,,,,"Surrey Public Wharf, 11731 130 St",Park,49.216653,-122.862045
0,Benches and Bleachers,"2 Permanent Benches(In Place of Dugouts); Sunnyside Park, 15455 - 26 Ave",Dia-SB 1,,,,0,Bench,,,,0,,,,,,15455,OPERATING,,,,0,,,,,"Sunnyside Park, 15455 26 Ave",,49.050074,-122.795205
0,Benches and Bleachers,"Bench; Sunnyside Park, 15455 - 26 Ave",Dia-SB 1,,,,0,Bench,,,,0,,,,,,15455,OPERATING,,,,0,,,,,"Sunnyside Park, 15455 26 Ave",,49.049984,-122.795205
4,Stairs,"Wood Stairs #1; Alderwood Park, 1761 Lilac Dr",west of lake,,,Wood,,,,,,,,,,,,01761,OPERATING,,,20160104,,,,,,"Alderwood Park, 1761 Lilac Dr",Park,49.032712,-122.782196
6,Other,"Main shut off valve; South Surrey Athletic Park, 1925 148 St","Along Rotary Way, south end of Softball City complex",Irrigation Component,,,,,,,,,,,,,,01925,OPERATING,,,,,,,,,"South Surrey Athletic Park, 1925 148 St",Park,49.042144,-122.815608
6,Other,"Electronic Score Board; South Surrey Athletic Park, 1925 148 St",Outfield of Baseball 6,,,,,,,,,,,,,,,01925,OPERATING,,,,,,,,,"South Surrey Athletic Park, 1925 148 St",Park,49.042485,-122.814486
6,Other,"Electronic Score Board; South Surrey Athletic Park, 1925 148 St",Outfield of Baseball 4,,,,,,,,,,,,,,,01925,OPERATING,,,,,,,,,"South Surrey Athletic Park, 1925 148 St",Park,49.044050,-122.816909
6,Other,"Electronic Score Board; South Surrey Athletic Park, 1925 148 St",Outfield of Baseball 7,,,,,,,,,,,,,,,01925,OPERATING,,,,,,,,,"South Surrey Athletic Park, 1925 148 St",Park,49.042435,-122.816903
6,Other,"Secondary Chamber; South Surrey Athletic Park, 1925 148 St","Along Rotary Way, south end of Softball City complex",Irrigation Component,,,,,,,,,,,,,,01925,OPERATING,,,,,,,,,"South Surrey Athletic Park, 1925 148 St",Park,49.042240,-122.815591
1,Gates,"12 Bicycle Baffles; 104G - Greenbelt, 15496 40 Ave",2 at each end of three paths,Bicycle Baffle,,,,,,,,,,,,,,15496,OPERATING,20060419,,20060101,0,,,,,"104G - Greenbelt, 15496 40 Ave",,49.070936,-122.792681
1,Gates,"12 Bicycle Baffles; 104G - Greenbelt, 15496 40 Ave",2 at each end of three paths,Bicycle Baffle,,,,,,,,,,,,,,15496,OPERATING,20060419,,20060101,0,,,,,"104G - Greenbelt, 15496 40 Ave",,49.070943,-122.791163
1,Gates,"2 Bicycle Baffles; 104G - Greenbelt, 15496 40 Ave",end of P2 156 St entrance,Bicycle Baffle,,,,,,,,,,,,,,15496,OPERATING,20060419,,20060101,0,,,,,"104G - Greenbelt, 15496 40 Ave",,49.070943,-122.790281
1,Gates,"Bollard; 122E - Detention Pond, 1894 139a St",At end of asphalt path on 139A ST,Bollard,,,,,,,,,,,,,,01894,OPERATING,20020719,,19890516,0,,,,,"122E - Detention Pond / Bell Estates Park, 1894 139a St",,49.036820,-122.836320
3,Shelters and Tables,"Table #1 - Permanent; Sunnyside Park, 15455 - 26 Ave",west of swimming pool,,,Metal,,,,,,,,Table - Permanent,,,,15455,OPERATING,,,,0,,,,,"Sunnyside Park, 15455 26 Ave",Park,49.050029,-122.795350
3,Shelters and Tables,"Table #2 - Permanent; Sunnyside Park, 15455 - 26 Ave",south of swimming pool,,,Metal,,,,,,,,Table - Permanent,,,,15455,OPERATING,20051013084400,,,0,,,,,"Sunnyside Park, 15455 26 Ave",Park,49.049639,-122.794926
3,Shelters and Tables,"Table #1 - Permanent; Dogwood Park, 13485 - 20 Ave",East of riding ring,,,Concrete,,,,,,,,Table - Permanent,,,,13485,OPERATING,,,,0,,,,,"Dogwood Park, 13485 20 Ave",Park,49.039360,-122.848795
3,Shelters and Tables,"Table #2 - Permanent; Dogwood Park, 13485 - 20 Ave",East of riding ring,,,Concrete,,,,,,,,Table - Permanent,,,,13485,OPERATING,,,,0,,,,,"Dogwood Park, 13485 20 Ave",Park,49.039314,-122.848737
3,Shelters and Tables,"Park Shelter - Permanent; Dogwood Park, 13485 - 20 Ave",East of riding ring,,,Wood,,,,,,,,Park Shelter - Permanent,,,,13485,OPERATING,,,19980101,0,,,,,"Dogwood Park, 13485 20 Ave",Park,49.039290,-122.848609
3,Shelters and Tables,"Table #1 - Permanent; Bakerview Park, 1845 - 154 St","North of parking lot, west table",,,Concrete,,,,,,,,Table - Permanent,,,,01845,OPERATING,,,,0,,,,,"Bakerview Park, 1845 154 St",Park,49.035781,-122.796559
3,Shelters and Tables,"Table #2 - Permanent; Bakerview Park, 1845 - 154 St","North of parking lot, east table",,,Concrete,,,,,,,,Table - Permanent,,,,01845,OPERATING,20051013091500,,,0,,,,,"Bakerview Park, 1845 154 St",Park,49.035778,-122.796408
3,Shelters and Tables,"Park Shelter #1 - Permanent; Redwood Park, 17900 - 20 Ave","SW of parking lot, south shelter",,,Aluminum,,,,,,,,Park Shelter - Permanent,,,,17900,OPERATING,,,19980101,0,,,,,"Redwood Park, 17900 20 Ave",Park,49.034646,-122.726310
0,Benches and Bleachers,"2 Permanent Benches; Holly Park, 10706 - 148 St",Dia-BB 1,,,,0,Bench,,,,0,,,,,,10706,OPERATING,,,,0,,,,,"Holly Park, 10706 148 St",,49.197113,-122.812105
0,Benches and Bleachers,"2 Permanent Football Team Benches; Bear Creek Oval, 13750 - 88 Ave","East Side of Oval, north of announcer's booth",,,,0,Bench,,,,0,,,,,,13750,OPERATING,,,,0,,,,,"Bear Creek Park, 13750 - 88 Ave",,49.162211,-122.842344
0,Benches and Bleachers,"Fixed Location Bench; Bolivar Park, 13591 - Crestview Dr",,,,,0,Bench,,,,0,,,,,,13591,OPERATING,,,,0,,,,,"Bolivar Park, 13591 Crestview Dr",,49.209747,-122.845523
0,Benches and Bleachers,"2 Fixed Location Benches; Parkwood Village Park, 12901 - 73 Ave",Next To Path Near Playground,,,,0,Bench,,,,0,,,,,,12901,OPERATING,,,,0,,,,,"Parkwood Village Park, 12901 73 Ave",,49.135739,-122.864898
0,Benches and Bleachers,"Fixed Location Bench; Barry Mather Park, 15039 - 92A Ave","Playground, north side",,,,0,Bench,,,,0,,,,,,15039,OPERATING,,,,0,,,,,"Barry Mather Park, 15039 92A Ave",,49.171179,-122.805738
0,Benches and Bleachers,"Fixed Location Bench; Boundary Park, 6058 - Boundary Dr West",In PLgrnd,,,,0,Bench,,,,0,,,,,,06058,OPERATING,,,,0,,,,,"Boundary Park, 6058 Boundary Dr West",,49.112631,-122.888792
0,Benches and Bleachers,"Fixed Location Bench; Clover Ridge Park, 19087 - 57 Ave",Adjacent to Playground,,,,0,Bench,,,,0,,,,,,19087,OPERATING,,,,0,,,,,"Clover Ridge Park, 19087 57 Ave",,49.107195,-122.694173
0,Benches and Bleachers,"Bench; Fraser Heights Park, 10588 160 St",At 108 Ave Tennis Courts,,,,0,Bench,,,,0,,,,,,10588,OPERATING,,,,0,,,,,"Fraser Heights Park, 10588 160 St",,49.194929,-122.777916
0,Benches and Bleachers,"Fixed Location Bench; Hazelnut Meadows Community Park, 14069 68 Ave",Along Path,,,,0,Bench,,,,0,,,,,,14069,OPERATING,,,,0,,,,,"Hazelnut Meadows Community Park, 14069 68 Ave",,49.126436,-122.832363
6,Other,"Kiosk; Crescent Park, 2585 132 St","east of T24 and P4 intersection, east of lake",,,,,,,,,,,,,,,02585,OPERATING,,,,,,,,,"Crescent Park, 2585 132 St",Park,49.049807,-122.861036
1,Gates,"2 Bicycle Baffles; Coyote Springs Park, 8108 164A St",At 165A St Entrance,Bicycle Baffle,,,,,,,,,,,,,,08108,OPERATING,,,,0,,,,,"Coyote Springs Park, 8108 164A St",,49.150169,-122.766105
0,Benches and Bleachers,"Bench; Fun Fun Park, 1472 - 128 St","along path between playground areas, ref # 5",,,,,Bench,,,Log,,,,,,,01472,OPERATING,,,20150625,,,,,,"Fun Fun Park, 1472 128 St",Park,49.029134,-122.866423
0,Benches and Bleachers,"Fixed Location Bench; Coyote Springs Park, 8108 164A St",long Path,,,,0,Bench,,,,0,,,,,,08108,OPERATING,,,,0,,,,,"Coyote Springs Park, 8108 164A St",,49.150124,-122.766173
0,Benches and Bleachers,"Fixed Location Bench - Nonpark; Bayview Park, 2590 - Bayview St",Next To Stairway At SE. Crescent Dr. Ent,,,,0,Bench,,,,0,,,,,,02590,OPERATING,,,,0,,,,,"Bayview Park, 2590 Bayview St",,49.049462,-122.881170
0,Benches and Bleachers,"Fixed Location Bench; Jack 'n Jill Tot-Lot, 12852 - 68 Ave",Next To Playground Near 68 Ave Entrance,,,,0,Bench,,,,0,,,,,,12852,OPERATING,,,,0,,,,,"Jack 'n Jill Tot-Lot, 12852 68 Ave",,49.126428,-122.866256
0,Benches and Bleachers,"Permanent Bench; Jack 'n Jill Tot-Lot, 12852 - 68 Ave",Next To Playground Near 68 Ave Entrance,,,,0,Bench,,,,0,,,,,,12852,OPERATING,,,,0,,,,,"Jack 'n Jill Tot-Lot, 12852 68 Ave",,49.126473,-122.866255
0,Benches and Bleachers,"2 Fixed Location Benches; 24L - Greenbelt, 9873 159 St",W. Side Of Site,,,,0,Bench,,,,0,,,,,,09873,OPERATING,,,,0,,,,,"24L - Tot-Lot, 9873 159 St",,49.181790,-122.781765
0,Benches and Bleachers,"4 fixed Location Benches; Frost Road Park, 8607 - 164 St",Next To Playground,,,,0,Bench,,,,0,,,,,,08607,OPERATING,,,,0,,,,,"Frost Road Park, 8607 164 St",,49.159585,-122.768004
0,Benches and Bleachers,"4 Benches; Frost Road Park, 8607 - 164 St",Next To Playground,,,,0,Bench,,,,0,,,,,,08607,OPERATING,,,,0,,,,,"Frost Road Park, 8607 164 St",,49.159630,-122.768003
0,Benches and Bleachers,"2 Benches; Pioneer Park, 6572 - 133 St",,,,,0,Bench,,,,0,,,,,,06572,OPERATING,,,,0,,,,,"Pioneer Park, 6572 133 St",,49.122198,-122.854330
0,Benches and Bleachers,"Fixed Location Bench; 33C - Tot-Lot, 14484 - 91 Ave",Beside Playground,,,,0,Bench,,,,0,,,,,,14484,OPERATING,,,,0,,,,,"33C - Tot-Lot, 14484 91 Ave",,49.167755,-122.821086
0,Benches and Bleachers,"Bench; 33C - Tot-Lot, 14484 - 91 Ave",Beside Playground,,,,0,Bench,,,,0,,,,,,14484,OPERATING,,,,0,,,,,"33C - Tot-Lot, 14484 91 Ave",,49.167755,-122.821017
0,Benches and Bleachers,"23C  Fixed Location Bench; 23C - Tot-Lot, 14757 - 101A Ave",In Playground,,,,0,Bench,,,,0,,,,,,14757,OPERATING,,,,0,,,,,"23C - Tot-Lot, 14757 101A Ave",,49.186812,-122.813440
1,Gates,"Bollard; Bothwell Elementary School Park, 10148 170A St",at entrance of P3 on 170a St,Bollard,,Metal,,,,,,,,,,,,10148,OPERATING,,,20160426,,,,,,"Bothwell Elementary School Park, 10148 170A St",Park,49.186011,-122.749819
1,Gates,"Bollard; Bothwell Elementary School Park, 10148 170A St",at entrance of P3 on 170a St,Bollard,,Metal,,,,,,,,,,,,10148,OPERATING,,,20160426,,,,,,"Bothwell Elementary School Park, 10148 170A St",Park,49.186021,-122.749827
1,Gates,"Bollard; Bothwell Elementary School Park, 10148 170A St",at entrance of P3 on 170a St,Bollard,,Metal,,,,,,,,,,,,10148,OPERATING,,,20160426,,,,,,"Bothwell Elementary School Park, 10148 170A St",Park,49.186026,-122.749833
1,Gates,"Ornamental Gate; The Glades, 561 172 St",between north and south property,Barrier - Single,,Metal,,,,,,,,,,,,00561,OPERATING,,,20160426,,,,,,"The Glades, 561 172 St",Park,49.011201,-122.746636
1,Gates,"Bollard; Royal Heights Park, 9780 Crown Cres",At Crown Cr Entrance,Bollard,,Metal,,,,,,,,,,,,09780,OPERATING,,,20160510,,,,,,"Royal Heights Park, 9780 Crown Cres",,49.180197,-122.905395
3,Shelters and Tables,"Park Shelter #2 - Permanent; Redwood Park, 17900 - 20 Ave","SW of parking lot, middle shelter",,,Aluminum,,,,,,,,Park Shelter - Permanent,,,,17900,OPERATING,,,19980101,0,,,,,"Redwood Park, 17900 20 Ave",Park,49.035054,-122.726085
3,Shelters and Tables,"Park Shelter #3 - Permanent; Redwood Park, 17900 - 20 Ave","SW of parking lot, north shelter",,,Concrete,,,,,,,,Park Shelter - Permanent,,,,17900,OPERATING,,,19980101,0,,,,,"Redwood Park, 17900 20 Ave",Park,49.035253,-122.726187
3,Shelters and Tables,"Park Shelter #4 - Permanent; Redwood Park, 17900 20 Ave",north of playground,,,Wood,,,,,,,,Park Shelter - Permanent,,,,17900,OPERATING,20050713071400,,19980101,0,,,,,"Redwood Park, 17900 20 Ave",Park,49.036179,-122.726429
3,Shelters and Tables,"Table #1 - Permanent; Redwood Park, 17900 - 20 Ave","upper north meadow, west table",,,Wood,,,,,,,,Table - Permanent,,,,17900,OPERATING,,,,0,,,,,"Redwood Park, 17900 20 Ave",Park,49.036103,-122.727502
3,Shelters and Tables,"Table #2 - Permanent; Redwood Park, 17900 - 20 Ave","upper north meadow, east table",,,Wood,,,,,,,,Table - Permanent,,,,17900,OPERATING,,,,0,,,,,"Redwood Park, 17900 20 Ave",Park,49.036199,-122.726914
3,Shelters and Tables,"Table #3 - Permanent; Redwood Park, 17900 - 20 Ave","upper north meadow, middle table",,,Wood,,,,,,,,Table - Permanent,,,,17900,OPERATING,,,,0,,,,,"Redwood Park, 17900 20 Ave",Park,49.036149,-122.727249
3,Shelters and Tables,"Table #4 - Permanent; Redwood Park, 17900 - 20 Ave","SW meadow area, north table",,,Concrete,,,,,,,,Table - Permanent,,,,17900,OPERATING,,,,0,,,,,"Redwood Park, 17900 20 Ave",Park,49.034671,-122.727883
3,Shelters and Tables,"Table #5 - Permanent; Redwood Park, 17900 - 20 Ave","SW meadow area, middle table",,,Concrete,,,,,,,,Table - Permanent,,,,17900,OPERATING,20051013095700,,,0,,,,,"Redwood Park, 17900 20 Ave",Park,49.034468,-122.728012
3,Shelters and Tables,"Table #6 - Permanent; Redwood Park, 17900 - 20 Ave","SW meadow area, south table",,,Concrete,,,,,,,,Table - Permanent,,,,17900,OPERATING,20051013095800,,,0,,,,,"Redwood Park, 17900 20 Ave",Park,49.034348,-122.728108
1,Gates,"Bicycle Baffle; Goldstone Park, 5850 146 St",at 59 Ave entrance,Bicycle Baffle,,Metal,,,,,,,,,,,,05850,OPERATING,,,,,,,,,"Goldstone Park, 5850 146 St",Park,49.110143,-122.815015
3,Shelters and Tables,"Table #3 - Permanent; Fun Fun Park, 1472 - 128 St",east of playground,,,Metal,,,,,,,,Table - Permanent,,,,01472,OPERATING,,,,0,,,,,"Fun Fun Park, 1472 128 St",Park,49.029050,-122.866107
3,Shelters and Tables,"Park Shelter #2 - Portable; Dominion Park, 8225 - 134 St","north of playground, east shelter",,,Wood,,,,,,,,Park Shelter - Portable,,,,08225,OPERATING,20051018133200,,,0,,,,,"Dominion Park, 8225 134 St",Park,49.152072,-122.851745
0,Benches and Bleachers,"2 Permanent Benches; Hawthorne Park, 10503 - 144 St",Perimeter of Water Park,,,,0,Bench,,,,0,,,,,,10503,OPERATING,,,,0,,,,,"Hawthorne Park, 10503 144 St",,49.193371,-122.823327
0,Benches and Bleachers,"4 Frances Andrews Benches; Hawthorne Park, 10503 - 144 St",Perimeter of Water Park,,,,0,Bench,,,,0,,,,,,10503,OPERATING,,,,0,,,,,"Hawthorne Park, 10503 144 St",,49.193416,-122.823326
0,Benches and Bleachers,"3 Fixed Location Benches; Hjorth Road Park, 10275 - 148 St",1st Baseline of Dia-SB 1,,,,0,Bench,,,,0,,,,,,10275,OPERATING,,,,0,,,,,"Hjorth Road Park, 10275 148 St",,49.189279,-122.812258
0,Benches and Bleachers,"4 Fixed Location Benches; Huntington Park, 13111 21b Ave",Next To PLAY-ADV Near Eastern 21A Av Ent,,,,0,Bench,,,,0,,,,,,13111,OPERATING,,,,0,,,,,"Huntington Park, 13111 21b Ave",,49.041807,-122.859522
0,Benches and Bleachers,"Fixed Location Bench; Hazelnut Meadows Community Park, 14069 68 Ave",Along Path,,,,0,Bench,,,,0,,,,,,14069,OPERATING,,,,0,,,,,"Hazelnut Meadows Community Park, 14069 68 Ave",,49.126436,-122.832295
0,Benches and Bleachers,"Fixed location Bench; Hazelnut Meadows Community Park, 14069 68 Ave",Along Path,,,,0,Bench,,,,0,,,,,,14069,OPERATING,,,,0,,,,,"Hazelnut Meadows Community Park, 14069 68 Ave",,49.126391,-122.832295
0,Benches and Bleachers,"Fixed Location Bench; Hazelnut Meadows Community Park, 14069 68 Ave",Along Path,,,,0,Bench,,,,0,,,,,,14069,OPERATING,,,,0,,,,,"Hazelnut Meadows Community Park, 14069 68 Ave",,49.126346,-122.832295
0,Benches and Bleachers,"Bench; Fun Fun Park, 1472 - 128 St","along path between playground areas, ref # 6",,,,,Bench,,,Log,,,,,,,01472,OPERATING,,,20150625,,,,,,"Fun Fun Park, 1472 128 St",Park,49.029108,-122.866428
0,Benches and Bleachers,"Bench; Elgin Heritage Park, 13723 Crescent Road","In the park, bench ref # 26",,,Wood,,Bench,Y,,Log,,,,,,,13723,OPERATING,20061017081300,,20140101,0,,,20240101,,"Elgin Heritage Park, 13723 Crescent Rd",Park,49.066028,-122.848427
1,Gates,"Metal Locking Gate; Blackie Spit, 3136 McBride Ave",Blackie's Spit-Maple Pump Road,Barrier - Single,,,,,,,,,,,,,,03136,OPERATING,,,,0,,,,,"Blackie Spit, 3136 McBride Ave",,49.056536,-122.874059
1,Gates,"Bollard; Robin Park, 11240 150 St",entrance to washroom 150 St,Bollard,,Metal,,,,,,,,,,,,11240,OPERATING,,,,,,,,,"Robin Park, 11240 150 St",Park,49.207199,-122.806176
1,Gates,"Bollard; Robin Park, 11240 150 St",entrance to washroom 150 St,Bollard,,Metal,,,,,,,,,,,,11240,OPERATING,,,,,,,,,"Robin Park, 11240 150 St",Park,49.207209,-122.806177
1,Gates,"Ornamental Driveway Gate w/electric lock; Elgin Heritage Park, 13723 - Crescent Rd",Driveway,Barrier - Single,,,,,,,,,,,,,,13723,OPERATING,,,,0,,,,,"Elgin Heritage Park / Stewart Farm / Wards Marina, 13723 Crescent Rd",,49.064446,-122.842454
1,Gates,"Metal Locking Gate; Dunsmuir Farm, 2900 Dunsmuir Rd",Entrance road,Barrier - Single,,,,,,,,,,,,,,02900,OPERATING,,,,0,,,,,"Dunsmuir Farm, 2900 Dunsmuir Rd",,49.053504,-122.879434
0,Benches and Bleachers,"Chairs & Chess Table; Bakerview Park, 1845 154 St","In the park, bench ref # 5",,,,,Bench,N,,Basic,2,,,,,,01845,OPERATING,20110722110500,,,0,,,,,"Bakerview Park, 1845 154 St",Park,49.034988,-122.798243
0,Benches and Bleachers,"Bench; Panorama Park, 12863 60 Ave",next to P11,,,,,Bench,,,Surrey,,,,,,,12863,OPERATING,,,20140501,,,,,,"Panorama Park, 12863 60 Ave",,49.112057,-122.864773
0,Benches and Bleachers,"Bench; Panorama Park, 12863 60 Ave",north end of P9,,,,,Bench,,,Surrey,,,,,,,12863,OPERATING,,,20140501,,,,,,"Panorama Park, 12863 60 Ave",,49.112554,-122.865369
0,Benches and Bleachers,"Bench; Panorama Park, 12863 60 Ave",across from playground,,,,,Bench,,,Surrey,,,,,,,12863,OPERATING,,,20140501,,,,,,"Panorama Park, 12863 60 Ave",,49.112664,-122.866001
0,Benches and Bleachers,"Bench; Panorama Park, 12863 60 Ave",across from playground,,,,,Bench,,,Surrey,,,,,,,12863,OPERATING,,,20140501,,,,,,"Panorama Park, 12863 60 Ave",,49.112729,-122.865948
0,Benches and Bleachers,"Bench; Tom Binnie Park, 10665 City Parkway",west of playground,,,Wood,,Bench,,,Basic,,,,,,,10665,OPERATING,,,20140624,,,,,,"Tom Binnie Park, 10665 City Parkway",,49.196136,-122.849481
0,Benches and Bleachers,"Bench; Fun Fun Park, 1472 - 128 St","in plaza NE corner of playround, ref # 4",,,,,Bench,,,Basic,,,,,,,01472,OPERATING,,,20150625,,,,,,"Fun Fun Park, 1472 128 St",Park,49.029279,-122.866345
0,Benches and Bleachers,"Bench; Fun Fun Park, 1472 - 128 St","in plaza NE corner of playround, ref # 1",,,,,Bench,,,Basic,,,,,,,01472,OPERATING,,,20150625,,,,,,"Fun Fun Park, 1472 128 St",Park,49.029335,-122.866422
0,Benches and Bleachers,"Bench; Fun Fun Park, 1472 - 128 St","in plaza NE corner of playround, ref # 3",,,,,Bench,,,Basic,,,,,,,01472,OPERATING,,,20150625,,,,,,"Fun Fun Park, 1472 128 St",Park,49.029270,-122.866372
3,Shelters and Tables,"Cooking Shelter; Hazelnut Meadows Community Park, 14069 68 Ave",East of Pk/Lot,,,Aluminum,,,,,,,,Cooking Shelter,,,,14069,OPERATING,,,,0,,,,,"Hazelnut Meadows Community Park, 14069 68 Ave",Park,49.127141,-122.833408
3,Shelters and Tables,"Cooking Shelter; Sullivan Park, 6272 152 St",near playground,,,Concrete,,,,,,,,Cooking Shelter,,,,06272,OPERATING,,,,0,,,,,"Sullivan Park, 6272 152 St",Park,49.115841,-122.796408
3,Shelters and Tables,"Cooking Shelter; Fleetwood Park, 15802 - 80 Ave","south of park shelters, west of playground",,,,,,,,,,,Cooking Shelter,,,,15802,OPERATING,20051019,,,0,,,,,"Fleetwood Park, 15802 80 Ave",Park,49.147514,-122.783938
3,Shelters and Tables,"Cooking Shelter; Hawthorne Park, 10503 144 St",south of parking lot and west of playground,,,,,,,,,,,Cooking Shelter,,,,10503,OPERATING,20051019,,,0,,,,,"Hawthorne Park, 10503 144 St",Park,49.193444,-122.826158
0,Benches and Bleachers,"Bench; Fun Fun Park, 1472 - 128 St","in plaza NE corner of playround, ref # 2",,,,,Bench,,,Basic,,,,,,,01472,OPERATING,,,20150625,,,,,,"Fun Fun Park, 1472 128 St",Park,49.029344,-122.866394
3,Shelters and Tables,"Park Shelter #1 - Permanent; Bear Creek Park, 13750 - 88 Ave","west of 140 St parking lot, east shelter",,,Aluminum,,,,,,,,Park Shelter - Permanent,,,,13750,OPERATING,,,19980101,0,,,,,"Bear Creek Park, 13750 88 Ave",Park,49.161154,-122.835613
3,Shelters and Tables,"Park Shelter #2 - Permanent; Bear Creek Park, 13750 - 88 Ave","west of 140 St parking lot, west shelter",,,Aluminum,,,,,,,,Park Shelter - Permanent,,,,13750,OPERATING,20051018133600,,19980101,0,,,,,"Bear Creek Park, 13750 88 Ave",Park,49.161163,-122.835735
3,Shelters and Tables,"Park Shelter #3 - Permanent; Bear Creek Park, 13750 - 88 Ave",northwest of track,,,Aluminum,,,,,,,,Park Shelter - Permanent,,,,13750,OPERATING,,,19980101,0,,,,,"Bear Creek Park, 13750 88 Ave",Park,49.160762,-122.841196
3,Shelters and Tables,"Park Shelter #4 - Permanent; Bear Creek Park, 13750 - 88 Ave",northwest of track,,,Aluminum,,,,,,,,Park Shelter - Permanent,,,,13750,OPERATING,20051018134300,,19980101,0,,,,,"Bear Creek Park, 13750 88 Ave",Park,49.160979,-122.841425
3,Shelters and Tables,"Table #1 - Permanent; Bear Creek Park, 13750 - 88 Ave",140 St passive area,,,Concrete,,,,,,,,Table - Permanent,,,,13750,OPERATING,,,,0,,,,,"Bear Creek Park, 13750 88 Ave",Park,49.161210,-122.835506
3,Shelters and Tables,"Table #2 - Permanent; Bear Creek Park, 13750 - 88 Ave",140 St passive area,,,Concrete,,,,,,,,Table - Permanent,,,,13750,OPERATING,,,,0,,,,,"Bear Creek Park, 13750 88 Ave",Park,49.161003,-122.835506
3,Shelters and Tables,"Table #3 - Permanent; Bear Creek Park, 13750 - 88 Ave",140 St passive area,,,Concrete,,,,,,,,Table - Permanent,,,,13750,OPERATING,,,,0,,,,,"Bear Creek Park, 13750 88 Ave",Park,49.161150,-122.835936
3,Shelters and Tables,"Table #4 - Permanent; Bear Creek Park, 13750 - 88 Ave",140 St passive area,,,Concrete,,,,,,,,Table - Permanent,,,,13750,OPERATING,,,,0,,,,,"Bear Creek Park, 13750 88 Ave",Park,49.160947,-122.836002
3,Shelters and Tables,"Table #5 - Permanent; Bear Creek Park, 13750 - 88 Ave",140 St passive area,,,Wood,,,,,,,,Table - Permanent,,,,13750,OPERATING,,,,0,,,,,"Bear Creek Park, 13750 88 Ave",Park,49.160821,-122.836239
3,Shelters and Tables,"Table #6 - Permanent; Bear Creek Park, 13750 - 88 Ave",140 St passive area,,,,,,,,,,,Table - Permanent,,,,13750,OPERATING,,,,0,,,,,"Bear Creek Park, 13750 88 Ave",Park,49.160732,-122.836483
3,Shelters and Tables,"Table #7 - Permanent; Bear Creek Park, 13750 - 88 Ave",140 St passive area,,,,,,,,,,,Table - Permanent,,,,13750,OPERATING,20051018142600,,,0,,,,,"Bear Creek Park, 13750 88 Ave",Park,49.160586,-122.836720
3,Shelters and Tables,"Table #8 - Permanent; Bear Creek Park, 13750 - 88 Ave",140 St passive area,,,,,,,,,,,Table - Permanent,,,,13750,OPERATING,20051018142700,,,0,,,,,"Bear Creek Park, 13750 88 Ave",Park,49.160657,-122.837057
3,Shelters and Tables,"Table #9 - Permanent; Bear Creek Park, 13750 - 88 Ave",140 St passive area,,,,,,,,,,,Table - Permanent,,,,13750,OPERATING,20051018142700,,,0,,,,,"Bear Creek Park, 13750 88 Ave",Park,49.160460,-122.837043
0,Benches and Bleachers,"Bench; Buchamer Park, 2601 139a St",along P2 on passive grass,,,,,Bench,,,,,,,,,,02601,OPERATING,,,20170401,,,,,,"Buchamer Park, 2601 139a St",Park,49.051778,-122.837854
0,Benches and Bleachers,"Temporary Bench; Bell Park, 1782 - 136 St",Tennis Court,,,,0,Bench,,,,0,,,,,,01782,OPERATING,,,,0,,,,,"Bell Park, 1782 136 St",,49.034324,-122.845180
0,Benches and Bleachers,"Temporary Wood Bench; Fleetwood Park, 15802 - 80 Ave",1st Baseline of Dia-SB 4,,,,0,Bench,,,,0,,,,,,15802,OPERATING,,,,0,,,,,"Fleetwood Park, 15802 80 Ave",,49.148034,-122.783084
0,Benches and Bleachers,"Temporary Wood Bench; Fleetwood Park, 15802 - 80 Ave",1st Baseline of Dia-SB 4,,,,0,Bench,,,,0,,,,,,15802,OPERATING,,,,0,,,,,"Fleetwood Park, 15802 80 Ave",,49.148034,-122.783153
0,Benches and Bleachers,"2 Benches/1 Surrey/1Multi-Turf; Douglas Park, 15044 - 99A Ave",Next To Playground,,,,0,Bench,,,,0,,,,,,15044,OPERATING,,,,0,,,,,"Douglas Park, 15044 99A Ave",,49.182628,-122.805401
0,Benches and Bleachers,"Portable Wood Bench; Robson Park, 12576 - 100 Ave",Dia-BB 1,,,,0,Bench,,,,0,,,,,,12576,OPERATING,,,,0,,,,,"Robson Park, 12576 100 Ave",,49.184373,-122.873616
0,Benches and Bleachers,"Portable Wood Bench; Sullivan Park, 6272 - 152 St",Dia-SB 1/2/4/,,,,0,Bench,,,,0,,,,,,06272,OPERATING,,,,0,,,,,"Sullivan Park, 6272 152 St",,49.116882,-122.800671
0,Benches and Bleachers,"Temporary Wood Bench; Sunnyside Park, 15455 - 26 Ave",Dia-SB 1,,,,0,Bench,,,,0,,,,,,15455,OPERATING,,,,0,,,,,"Sunnyside Park, 15455 26 Ave",,49.049984,-122.795342
0,Benches and Bleachers,"Wooden Bench; Pioneer Park, 6572 - 133 St",,,,,0,Bench,,,,0,,,,,,06572,OPERATING,,,,0,,,,,"Pioneer Park, 6572 133 St",,49.122243,-122.854330
0,Benches and Bleachers,"2 Benches; 1001 Steps - Greenbelt, 12590 15A Ave",along trail at bottom of steps,,,,0,Bench,,,,0,,,,,,12590,OPERATING,20000913,,19990913,0,,,,,"1001 Steps - Greenbelt, 12590 15A Ave",,49.030460,-122.873509
0,Benches and Bleachers,"Wood Bench; Bear Creek Park, 13750 88 Ave",Paved Area around Firepit,,,,0,Bench,,,,0,,,,,,13750,OPERATING,,,,0,,,,,"Bear Creek Park, 13750 - 88 Ave",,49.162121,-122.842345
6,Other,"BBQ Stand; Bear Creek Park, 13750 - 88 Ave",next to table 20,,,Metal,,,,,,,,,,,,13750,OPERATING,,,20131101,,,,,,"Bear Creek Park, 13750 88 Ave",Park,49.160603,-122.841398
6,Other,"BBQ Stand; Bear Creek Park, 13750 - 88 Ave",next to table 21,,,Metal,,,,,,,,,,,,13750,OPERATING,,,20131101,,,,,,"Bear Creek Park, 13750 88 Ave",Park,49.160655,-122.842098
6,Other,"BBQ Stand; Bear Creek Park, 13750 - 88 Ave",main picnic area,,,Metal,,,,,,,,,,,,13750,OPERATING,,,20131101,,,,,,"Bear Creek Park, 13750 88 Ave",Park,49.161035,-122.841593
6,Other,"BBQ Stand; Bear Creek Park, 13750 - 88 Ave",next to table 4,,,Metal,,,,,,,,,,,,13750,OPERATING,,,20131101,,,,,,"Bear Creek Park, 13750 88 Ave",Park,49.160970,-122.836004
6,Other,"BBQ Stand; Bear Creek Park, 13750 - 88 Ave",next to table 23,,,Metal,,,,,,,,,,,,13750,OPERATING,,,20131101,,,,,,"Bear Creek Park, 13750 88 Ave",Park,49.161041,-122.841710
6,Other,"BBQ Stand; Bear Creek Park, 13750 - 88 Ave",next to table 3,,,Metal,,,,,,,,,,,,13750,OPERATING,,,20131101,,,,,,"Bear Creek Park, 13750 88 Ave",Park,49.161177,-122.835944
6,Other,"BBQ Stand; Bear Creek Park, 13750 - 88 Ave",140 St passive area,,,Metal,,,,,,,,,,,,13750,OPERATING,,,20131101,,,,,,"Bear Creek Park, 13750 88 Ave",Park,49.161239,-122.835554
6,Other,"BBQ Stand; Bear Creek Park, 13750 - 88 Ave",next to table 19,,,Metal,,,,,,,,,,,,13750,OPERATING,,,20131101,,,,,,"Bear Creek Park, 13750 88 Ave",Park,49.161360,-122.838849
6,Other,"BBQ Stand; Bear Creek Park, 13750 - 88 Ave",next to table 15,,,Metal,,,,,,,,,,,,13750,OPERATING,,,20131101,,,,,,"Bear Creek Park, 13750 88 Ave",Park,49.160334,-122.835503
6,Other,"BBQ Stand; Bear Creek Park, 13750 - 88 Ave",next to table 16,,,Metal,,,,,,,,,,,,13750,OPERATING,,,20131101,,,,,,"Bear Creek Park, 13750 88 Ave",Park,49.160097,-122.835500
6,Other,"BBQ Stand; Bear Creek Park, 13750 - 88 Ave",next to table 14,,,Metal,,,,,,,,,,,,13750,OPERATING,,,20131101,,,,,,"Bear Creek Park, 13750 88 Ave",Park,49.160145,-122.835805
3,Shelters and Tables,Table - Permanent,Robson Park,,,,,,,,,,,Table - Permanent,,,,,OPERATING,,,,,,,,,"Robson Park, 12576 100 Ave",,49.183924,-122.870963
6,Other,"BBQ Stand; Bear Creek Park, 13750 - 88 Ave",next to table 13,,,Metal,,,,,,,,,,,,13750,OPERATING,,,20131101,,,,,,"Bear Creek Park, 13750 88 Ave",Park,49.160063,-122.836061
3,Shelters and Tables,Table - Permanent,Robson Park,,,,,,,,,,,Table - Permanent,,,,,OPERATING,,,20170616,,,,,,"Robson Park, 12576 100 Ave",,49.184036,-122.870846
0,Benches and Bleachers,"Bench; Chimney Hill Park - 53A, 15070 - 76 Ave",in playground # 2,,,,,Bench,,,,,,,,,,15070,OPERATING,,,20140306,,,,,,"Chimney Hill Park, 15070 76 Ave",,49.137893,-122.802672
0,Benches and Bleachers,"Wood Bleachers; Unwin Park, 13313 - 68 Ave",Diamond 8 - 1st baseline,,,Wood,0,Bleacher,,,,0,,,,,,13313,OPERATING,,,,0,,,,,"Unwin Park, 13313 68 Ave",,49.128751,-122.853100
0,Benches and Bleachers,"Wood Bleachers; Unwin Park, 13313 - 68 Ave",Diamond 6 - 1st baseline,,,Wood,0,Bleacher,,,,0,,,,,,13313,OPERATING,,,,0,,,,,"Unwin Park, 13313 68 Ave",,49.127694,-122.853897
0,Benches and Bleachers,"Wood Bleachers; Unwin Park, 13313 - 68 Ave",Diamond 6 - 3rd baseline,,,Wood,0,Bleacher,,,,0,,,,,,13313,OPERATING,,,,0,,,,,"Unwin Park, 13313 68 Ave",,49.127640,-122.853986
0,Benches and Bleachers,"Wood Bleachers; Unwin Park, 13313 - 68 Ave",Diamond 7 - 1st baseline,,,Wood,0,Bleacher,,,,0,,,,,,13313,OPERATING,,,,0,,,,,"Unwin Park, 13313 68 Ave",,49.127741,-122.852990
0,Benches and Bleachers,"Wood Bleachers; Unwin Park, 13313 - 68 Ave",Diamond 7 - 3rd baseline,,,Wood,0,Bleacher,,,,0,,,,,,13313,OPERATING,,,,0,,,,,"Unwin Park, 13313 68 Ave",,49.127671,-122.853111
0,Benches and Bleachers,"Wood Bleachers; Unwin Park, 13313 - 68 Ave",Diamond 8 - 3rd baseline,,,Wood,0,Bleacher,,,,0,,,,,,13313,OPERATING,,,,0,,,,,"Unwin Park, 13313 68 Ave",,49.128670,-122.852990
3,Shelters and Tables,"Table #10 - Permanent; Bear Creek Park, 13750 - 88 Ave",140 St passive area,,,,,,,,,,,Table - Permanent,,,,13750,OPERATING,20051018142800,,,0,,,,,"Bear Creek Park, 13750 88 Ave",Park,49.159646,-122.837024
3,Shelters and Tables,"Table #11 - Permanent; Bear Creek Park, 13750 - 88 Ave",140 St passive area,,,,,,,,,,,Table - Permanent,,,,13750,OPERATING,20051018142900,,,0,,,,,"Bear Creek Park, 13750 88 Ave",Park,49.159626,-122.836651
3,Shelters and Tables,"Table #12 - Permanent; Bear Creek Park, 13750 - 88 Ave",140 St passive area,,,,,,,,,,,Table - Permanent,,,,13750,OPERATING,20051018143100,,,0,,,,,"Bear Creek Park, 13750 88 Ave",Park,49.159955,-122.836371
3,Shelters and Tables,"Table #13 - Permanent; Bear Creek Park, 13750 - 88 Ave",140 St passive area,,,,,,,,,,,Table - Permanent,,,,13750,OPERATING,20051018143100,,,0,,,,,"Bear Creek Park, 13750 88 Ave",Park,49.160044,-122.836062
3,Shelters and Tables,"Table #14 - Permanent; Bear Creek Park, 13750 - 88 Ave",140 St passive area,,,,,,,,,,,Table - Permanent,,,,13750,OPERATING,20051018143200,,,0,,,,,"Bear Creek Park, 13750 88 Ave",Park,49.160166,-122.835803
3,Shelters and Tables,"Table #15 - Permanent; Bear Creek Park, 13750 - 88 Ave",140 St passive area,,,,,,,,,,,Table - Permanent,,,,13750,OPERATING,20051018143300,,,0,,,,,"Bear Creek Park, 13750 88 Ave",Park,49.160312,-122.835502
3,Shelters and Tables,"Table #16 - Permanent; Bear Creek Park, 13750 - 88 Ave",140 St passive area,,,,,,,,,,,Table - Permanent,,,,13750,OPERATING,20051018143300,,,0,,,,,"Bear Creek Park, 13750 88 Ave",Park,49.160119,-122.835495
3,Shelters and Tables,"Table #17 - Permanent; Bear Creek Park, 13750 - 88 Ave",140 St passive area,,,,,,,,,,,Table - Permanent,,,,13750,OPERATING,20051018143400,,,0,,,,,"Bear Creek Park, 13750 88 Ave",Park,49.160010,-122.835086
3,Shelters and Tables,"Table #18 - Permanent; Bear Creek Park, 13750 - 88 Ave",140 St passive area,,,,,,,,,,,Table - Permanent,,,,13750,OPERATING,20051018143500,,,0,,,,,"Bear Creek Park, 13750 88 Ave",Park,49.159615,-122.835095
3,Shelters and Tables,"Table #19 - Permanent; Bear Creek Park, 13750 - 88 Ave",north of pool,,,,,,,,,,,Table - Permanent,,,,13750,OPERATING,20051018143700,,,0,,,,,"Bear Creek Park, 13750 88 Ave",Park,49.161345,-122.838889
3,Shelters and Tables,"Table #20 - Permanent; Bear Creek Park, 13750 - 88 Ave",north of track and football field,,,,,,,,,,,Table - Permanent,,,,13750,OPERATING,20051018144000,,,0,,,,,"Bear Creek Park, 13750 88 Ave",Park,49.160613,-122.841445
3,Shelters and Tables,"Table #21 - Permanent; Bear Creek Park, 13750 - 88 Ave",north of track and football field,,,,,,,,,,,Table - Permanent,,,,13750,OPERATING,20051018144100,,,0,,,,,"Bear Creek Park, 13750 88 Ave",Park,49.160672,-122.842114
3,Shelters and Tables,"Table #22 - Permanent; Bear Creek Park, 13750 - 88 Ave",north of track and football field,,,,,,,,,,,Table - Permanent,,,,13750,OPERATING,20051018144200,,,0,,,,,"Bear Creek Park, 13750 88 Ave",Park,49.160875,-122.841963
3,Shelters and Tables,"Table #23 - Permanent; Bear Creek Park, 13750 - 88 Ave",north of track and football field,,,,,,,,,,,Table - Permanent,,,,13750,OPERATING,20051018144200,,,0,,,,,"Bear Creek Park, 13750 88 Ave",Park,49.161014,-122.841693
1,Gates,"Bicycle Baffle; Clayton Hill Park, 18221 Claytonhill Dr",Claytonhill Dr entrance,Bicycle Baffle,,,,,,,,,,,,,,06502,OPERATING,,,,0,,,,,"Clayton Hill Park, 18221 Claytonhill Dr",,49.121831,-122.717609
6,Other,"Sanitary Manhole; Clayton Hill Park, 18221 Claytonhill Dr",along P3,,,,,,,,,,,,,,,18221,OPERATING,,,,,,,,,"Clayton Hill Park, 18221 Claytonhill Dr",Park,49.121473,-122.717448
6,Other,"Storm Manhole; Clayton Hill Park, 18221 Claytonhill Dr",along P3,,,,,,,,,,,,,,,18221,OPERATING,,,,,,,,,"Clayton Hill Park, 18221 Claytonhill Dr",Park,49.121453,-122.717454
1,Gates,"Bollard; Clayton Hill Park, 18221 Claytonhill Dr",@ entrance to path on 67 Ave,Bollard,,,,,,,,,,,,,,18221,OPERATING,,,,,,,,,"Clayton Hill Park, 18221 Claytonhill Dr",,49.123999,-122.717422
0,Benches and Bleachers,"Bench; Adams Road Park, 18160 68 Ave","At playground, bench ref # 1",,,,,Bench,N,,Basic,3,,,,,,18160,OPERATING,20110722130900,,20110301,0,,,,,"Adams Road Park, 18160 68 Ave",Park,49.125404,-122.718633
0,Benches and Bleachers,"Metal and Wood Bench; Royal Kwantlen Park, 13035 104 Ave",Dia-SB 1,,,,0,Bench,,,,0,,,,,,13035,OPERATING,,,,0,,,,,"Royal Kwantlen Park, 13035 104 Ave",,49.191844,-122.861564
0,Benches and Bleachers,"Bench; 110C - Greenbelt, 12575 28 Ave","@ corner of Tulloch Rd, 28 Ave, & 126 St",,,,0,Bench,,,,0,,,,,,12570,OPERATING,20010828,,19991016,0,,,,,"110C - Greenbelt, 12575 28 Ave",,49.053039,-122.873296
0,Benches and Bleachers,"Bench; Alder Park, 13907 Highway 10",in the playground,,,,0,Bench,,,Basic,0,,,,,,13907,OPERATING,20011030,,20010913,0,,,,,"Alder Park, 13907 Highway 10",,49.106881,-122.835822
0,Benches and Bleachers,"Bench; Darts Hill Garden Park, 1660 168 St",North of South Parking lot off 16th Ave,,,,0,Bench,,,,0,,,,,,01660,OPERATING,20011030,,20010913,0,,,,,"Darts Hill Garden Park, 1660 168 St",,49.032240,-122.756063
0,Benches and Bleachers,"Bench; Darts Hill Garden Park, 1660 168 St",North of South Parking lot off 16th Ave,,,,0,Bench,,,,0,,,,,,01660,OPERATING,20011030,,20010913,0,,,,,"Darts Hill Garden Park, 1660 168 St",,49.032285,-122.756063
0,Benches and Bleachers,"2 Benches; Coast Meridian Park, 8225 170 St",at the SW corner of grass sportsfield,,,,0,Bench,,,,0,,,,,,08232,OPERATING,20020402,,20011029,0,,,,,"Coast Meridian Park, 8225 170 St",,49.152181,-122.753195
0,Benches and Bleachers,"Bench; Todd Crescent Park, 14075 73 Ave",east of playground,,,,0,Bench,,,,0,,,,,,14075,OPERATING,20020402,,19950515,0,,,,,"Todd Crescent Park, 14075 73 Ave",,49.135435,-122.832407
0,Benches and Bleachers,"3 Benches; City Hall Grounds, 14245 56 Ave",3 benches in waterwise garden at NE corner of grounds,,,,0,Bench,,,,0,,,,,,14245,OPERATING,20020402,,20010912,0,,,,,"City Hall Grounds, 14245 56 Ave",,49.105108,-122.827989
0,Benches and Bleachers,"Wood Bench; Bolivar Park, 13591 Crestview Dr",,,,,0,Bench,,,,0,,,,,,13591,OPERATING,,,,0,,,,,"Bolivar Park, 13591 Crestview Dr",,49.209792,-122.845523
6,Other,"BBQ Stand; Bear Creek Park, 13750 - 88 Ave",next to table 12,,,Metal,,,,,,,,,,,,13750,OPERATING,,,20131101,,,,,,"Bear Creek Park, 13750 88 Ave",Park,49.159931,-122.836366
6,Other,"BBQ Stand; Bear Creek Park, 13750 - 88 Ave",next to table 11,,,Metal,,,,,,,,,,,,13750,OPERATING,,,20131101,,,,,,"Bear Creek Park, 13750 88 Ave",Park,49.159647,-122.836644
6,Other,"BBQ Stand; Bear Creek Park, 13750 - 88 Ave",next to table 10,,,Metal,,,,,,,,,,,,13750,OPERATING,,,20131101,,,,,,"Bear Creek Park, 13750 88 Ave",Park,49.159667,-122.837035
6,Other,"BBQ Stand; Bear Creek Park, 13750 - 88 Ave",next to table 17,,,Metal,,,,,,,,,,,,13750,OPERATING,,,20131101,,,,,,"Bear Creek Park, 13750 88 Ave",Park,49.160027,-122.835078
6,Other,"BBQ Stand; Bear Creek Park, 13750 - 88 Ave",next to table 18,,,Metal,,,,,,,,,,,,13750,OPERATING,,,20131101,,,,,,"Bear Creek Park, 13750 88 Ave",Park,49.159636,-122.835085
6,Other,"BBQ Stand; Bear Creek Park, 13750 - 88 Ave",next to table 2,,,Metal,,,,,,,,,,,,13750,OPERATING,,,20131101,,,,,,"Bear Creek Park, 13750 88 Ave",Park,49.161028,-122.835503
3,Shelters and Tables,"Table #34 - Permanent; Bear Creek Park, 13750 - 88 Ave",north of track and football field,,,Galvanized,,,,,,,,Table - Permanent,,,,13750,OPERATING,,,20130403,,,,,,"Bear Creek Park, 13750 88 Ave",Park,49.160949,-122.843406
3,Shelters and Tables,"Table #33 - Permanent; Bear Creek Park, 13750 - 88 Ave",north of track and football field,,,Galvanized,,,,,,,,Table - Permanent,,,,13750,OPERATING,,,20130403,,,,,,"Bear Creek Park, 13750 88 Ave",Park,49.161023,-122.843420
6,Other,"BBQ Stand; Bear Creek Park, 13750 - 88 Ave",next to table 26,,,Metal,,,,,,,,,,,,13750,OPERATING,,,20131101,,,,,,"Bear Creek Park, 13750 88 Ave",Park,49.160494,-122.843304
6,Other,"BBQ Stand; Bear Creek Park, 13750 - 88 Ave",next to table 29,,,Metal,,,,,,,,,,,,13750,OPERATING,,,20131101,,,,,,"Bear Creek Park, 13750 88 Ave",Park,49.161450,-122.843583
6,Other,"BBQ Stand; Bear Creek Park, 13750 - 88 Ave",next to table 34,,,Metal,,,,,,,,,,,,13750,OPERATING,,,20131101,,,,,,"Bear Creek Park, 13750 88 Ave",Park,49.160931,-122.843404
6,Other,"BBQ Stand; Bear Creek Park, 13750 - 88 Ave",140 St passive area,,,Metal,,,,,,,,,,,,13750,OPERATING,,,20131101,,,,,,"Bear Creek Park, 13750 88 Ave",Park,49.161229,-122.835781
6,Other,"BBQ Stand; Bear Creek Park, 13750 - 88 Ave",next to table 25,,,Metal,,,,,,,,,,,,13750,OPERATING,,,20131101,,,,,,"Bear Creek Park, 13750 88 Ave",Park,49.161220,-122.841966
6,Other,"BBQ Stand; Bear Creek Park, 13750 - 88 Ave",140 St passive area,,,Metal,,,,,,,,,,,,13750,OPERATING,,,20131101,,,,,,"Bear Creek Park, 13750 88 Ave",Park,49.161059,-122.835727
3,Shelters and Tables,"Table #24 - Permanent; Bear Creek Park, 13750 - 88 Ave",north of track and football field,,,,,,,,,,,Table - Permanent,,,,13750,OPERATING,20051018144300,,,0,,,,,"Bear Creek Park, 13750 88 Ave",Park,49.161114,-122.842123
3,Shelters and Tables,"Table #25 - Permanent; Bear Creek Park, 13750 - 88 Ave",north of track and football field,,,,,,,,,,,Table - Permanent,,,,13750,OPERATING,20051018144400,,,0,,,,,"Bear Creek Park, 13750 88 Ave",Park,49.161243,-122.841987
3,Shelters and Tables,"Table #29 - Permanent; Bear Creek Park, 13750 - 88 Ave",north of track and football field,,,,,,,,,,,Table - Permanent,,,,13750,OPERATING,20051018144800,,,0,,,,,"Bear Creek Park, 13750 88 Ave",Park,49.161456,-122.843563
3,Shelters and Tables,"Table #30 - Permanent; Bear Creek Park, 13750 - 88 Ave",north of track and football field,,,,,,,,,,,Table - Permanent,,,,13750,OPERATING,20051018144900,,,0,,,,,"Bear Creek Park, 13750 88 Ave",Park,49.161616,-122.843837
3,Shelters and Tables,"Table #2 - Permanent; Port Kells Park, 19340 - 88 Ave",southeast of park shelter,,,Wood,,,,,,,,Table - Permanent,,,,19340,OPERATING,,,,0,,,,,"Port Kells Park, 19340 88 Ave",Park,49.160526,-122.686958
3,Shelters and Tables,"Table #1 - Permanent; Port Kells Park, 19340 - 88 Ave",east of park shelter,,,Concrete,,,,,,,,Table - Permanent,,,,19340,OPERATING,,,,0,,,,,"Port Kells Park, 19340 88 Ave",Park,49.160362,-122.686813
3,Shelters and Tables,"Park Shelter - Permanent; 50B - Utility ROW (Newton Dog-Off-Leash Park), 12586 80 Ave",In dog park in gravel entrance area,,,,,,,,,,,Park Shelter - Permanent,,,,12586,OPERATING,20051012132300,,20050808,0,,,,,"50B - Utility ROW (Serpentine Dog-Off-Leash Park), 12586 80 Ave",Park,49.141409,-122.873410
3,Shelters and Tables,"Park Shelter #4 - Portable; Fleetwood Park, 15802 80 Ave",west of formal garden,,,,,,,,,,,Park Shelter - Portable,,,,15802,OPERATING,20030718094900,,20030902,0,,,,,"Fleetwood Park, 15802 80 Ave",Park,49.147915,-122.781831
3,Shelters and Tables,"Park Shelter #1 - Permanent; Fleetwood Park, 15802 - 80 Ave","west of playground, west shelter",,,Aluminum,,,,,,,,Park Shelter - Permanent,,,,15802,OPERATING,,,19980101,0,,,,,"Fleetwood Park, 15802 80 Ave",Park,49.147745,-122.784090
3,Shelters and Tables,"Picnic Table; Maple Park, 14939 84 Ave","within park, table ref # 1",,,Plastic,,,,,,,,Table - Permanent,,,,14939,OPERATING,,Parks,20170606,,,,,,"Maple Park, 14939 84 Ave",Park,49.155675,-122.807458
0,Benches and Bleachers,"Metal and Wood Bench; Fleetwood Dog Park, 15452 84 Ave",35m east of parking lot on path,,,,0,Bench,,,,0,,,,,,15452,OPERATING,20021030,,20020409,0,,,,,"Freedom Dog-Off-Leash Park, 15452 84 Ave",,49.155395,-122.794668
3,Shelters and Tables,"Picnic Table; Maple Park, 14939 84 Ave","within park, table ref # 2",,,Plastic,,,,,,,,Table - Permanent,,,,14939,OPERATING,,Parks,20170606,,,,,,"Maple Park, 14939 84 Ave",Park,49.155692,-122.807436
0,Benches and Bleachers,"Metal and Wood Bench; Newton Reservoir Park, 6275 128 St",On path at east end of park,,,,0,Bench,,,,0,,,,,,06275,OPERATING,20030311,,20021101,0,,,,,"Newton Reservoir Park, 6275 128 St",,49.116430,-122.868097
1,Gates,"Access Gate; Hi-Knoll Park, 19569 Colebrook Rd","SE corner of park, 196 St",Service,,Metal,,,,,,,,,,,,19569,OPERATING,,,,,,,,,"Hi-Knoll Park, 19569 Colebrook Rd",Park,49.089649,-122.679656
0,Benches and Bleachers,"Bench; Morgan Creek Park, 3302 156A St",South side of playground,,,,0,Bench,,,,0,,,,,,03302,OPERATING,20060201,,20050322,0,,,,,"Morgan Creek Park, 3302 156A St",,49.062046,-122.789790
0,Benches and Bleachers,"Bench; Erma Stephenson Park, 15920 110 Ave",Northwest side of water park,,,,0,Bench,,,,0,,,,,,15920,OPERATING,20060201,,20040423,0,,,,,"Erma Stephenson Park, 15920 110 Ave",,49.202264,-122.781214
