BUSINESS_NAME,PRODUCTS_OR_SERVICES,UNIT,HOUSE_NUMBER,ROAD,SURREY_POSTAL_CODE,PHONE,EMPLOYEES,TOWN_CENTRE,NAIC,LONGITUDE,LATITUDE
S & R Sawmills Ltd,Mfg. - Sawmills & Custom Cutting,0,18887,98A Ave,V4N4E1,6048880022,425,GTC,321111,-122.6996837,49.18178409
Valley View Memorial Gardens,Cemetary,0,14644,72 Ave,V3S2E7,6045967196,44,NTC,812220,-122.8176721,49.13356487
Bekaert Canada Ltd,Manufacturers,0,11041,Elevator Rd,V3V2R8,6045815441,135,WTC,332619,-122.9153089,49.17823852
Reliance Foundry Co Ltd,Manufacturing,207,6450,148 St,V3S7G7,6045924333,11,NTC,333519,-122.8110741,49.11969649
Reliance Foundry Co Ltd,Manufacturing,207,6450,148 St,V3S7G7,6045924333,11,NTC,417230,-122.8110741,49.11969649
Roaths Pawn Shop Ltd,Pawn Shop,0,13573,King George Hwy,V3T2V1,6045844010,7,SCC,522299,-122.8460923,49.19973553
99 Nursery & Florist Inc,"Nursery & Florist, Giftware",0,9376,King George Hwy,V3V5W3,6045846555,22,WTC,444220,-122.8452823,49.17330682
99 Nursery & Florist Inc,"Nursery & Florist, Giftware",0,9376,King George Hwy,V3V5W3,6045846555,22,WTC,453220,-122.8452823,49.17330682
Cloverdale Paint Inc,Retail Merchants,0,6950,King George Blvd,V3W4Z1,6045961736,106,NTC,325510,-122.8451521,49.1293827
Cloverdale Paint Inc,Retail Merchants,0,6950,King George Blvd,V3W4Z1,6045961736,106,NTC,444120,-122.8451521,49.1293827
Venus Cleaners (176 St),Dry Cleaner (no coin operated machines),0,5758,176 St,V3S4C8,6045744355,2,CTC,812320,-122.7347778,49.10701898
P K Building Supply,"Lumber Yard, Building Supplies",0,18981,88 Ave,V4N3G5,6048820064,6,GTC,444130,-122.6978059,49.16299378
P K Building Supply,"Lumber Yard, Building Supplies",0,18981,88 Ave,V4N3G5,6048820064,6,GTC,444190,-122.6978059,49.16299378
Big O Tires,Retail Tires,0,13526,King George Hwy,V3T2T7,6045852388,2,SCC,441310,-122.8475402,49.20009016
Prime Collision Ltd,Auto Body Repair,0,14746,108A Ave,V3R1W8,6045852301,7,GTC,811121,-122.8138983,49.19948801
Budget Rent A Car Truck,Auto & Truck Rental Service,0,10305,King George Blvd,V3T2W6,6046687100,3,SCC,532190,-122.8457157,49.18996016
Cam Chain Co Ltd (128 St),Mfg. - Chains for Sawmill & Woodworking Machinery,0,8355,128 St,V3W4G1,6045991522,38,NTC,333210,-122.8682515,49.15429999
T J Glass Odyssey Inc,Auto Body Repair,0,13524,105 Ave,V3T1Z6,6045816313,4,SCC,811121,-122.8473822,49.19303844
Pharmasave 179,Retail Merchants - Drug Store,0,10654,King George Hwy,V3T2X3,6045814431,6,SCC,446110,-122.8449248,49.19613355
Pharmasave 179,Retail Merchants - Drug Store,0,10654,King George Hwy,V3T2X3,6045814431,6,SCC,446120,-122.8449248,49.19613355
Crescent Beach Marina Co  Ltd,Marina,0,12555,Crescent Rd,V4A2V4,6045389666,13,SSTC,487210,-122.8713307,49.05628747
Dryco Drywall Supplies Ltd,Building Supplies,0,8515,148 St,V3S3G5,6045915141,20,FTC,444130,-122.8126829,49.15761918
X L Ironworks Co,Mfg. & Inst. Structural Steel & Misc. Metals,0,12720,82 Ave,V3W3G1,6045961747,45,NTC,332999,-122.8699558,49.15135284
Cedar Hills Animal Hospital,Veterinary Serv.,0,12863,96 Ave,V3V6V9,6045837387,6,SCC,541940,-122.8653458,49.17730982
Hugh & McKinnon Realty Ltd,"Real Estate Office, Property Mgmt .",0,14007,16 Ave,V4A1P9,6045311909,50,SSTC,531210,-122.8339427,49.03143487
Hugh & McKinnon Realty Ltd,"Real Estate Office, Property Mgmt .",0,14007,16 Ave,V4A1P9,6045311909,50,SSTC,531310,-122.8339427,49.03143487
H Y Louie Co Ltd,"Whlse. Groceries,Vending Machine",0,13557,77 Ave,V3W6Y2,6045917227,6,NTC,413190,-122.8468663,49.14286316
Garaventa Canada Ltd,"Mfg. - Inclined Stair Lifts, Wheelchair Elevators & Aerial Tramways",0,7505,134A St,V3W7B3,6045940422,138,NTC,232550,-122.8504695,49.13902583
A & A Contract Customs Brokers,Customs Broker,101,120,176 St,V3S9S2,6045427264,75,SSTC,488519,-122.7349152,49.00430114
Black & Lee Formal Wear Ltd,"Sales/Rental of Fine Formal Wear,Music Practice,Nutrition",80,10330,152 St,V3R4G8,6045828860,2,GTC,448110,-122.8001306,49.19012695
Black & Lee Formal Wear Ltd,"Sales/Rental of Fine Formal Wear,Music Practice,Nutrition",80,10330,152 St,V3R4G8,6045828860,2,GTC,532220,-122.8001306,49.19012695
Kingdom Truck Accessories Ltd,Truck accessories sales,0,10324,Scott Rd,V3V4G1,6045843722,4,WTC,441310,-122.848899,49.191464
Art Knapp Plantland (King George Hwy),Retail - Nursery & Garden Products,0,4391,King George Hwy,V4P2J9,6045969201,48,SSTC,444220,-122.8209286,49.08170578
Jim Pattison Toyota,Automotive Service/Body Repair,0,15389,Guildford Dr,V3R0H9,6045972424,82,GTC,441110,-122.7950706,49.19677339
Jim Pattison Toyota,Automotive Service/Body Repair,0,15389,Guildford Dr,V3R0H9,6045972424,82,GTC,811111,-122.7950706,49.19677339
Jim Pattison Toyota,Automotive Service/Body Repair,0,15389,Guildford Dr,V3R0H9,6045972424,82,GTC,811121,-122.7950706,49.19677339
Southridge Building Supplies Ltd,Retail Merchant - Lumber,0,17444,No 10 (56 Ave) Hwy,V3S1C3,6045762113,50,CTC,444130,-122.739628,49.10367472
Southridge Building Supplies Ltd,Retail Merchant - Lumber,0,17444,No 10 (56 Ave) Hwy,V3S1C3,6045762113,50,CTC,454390,-122.739628,49.10367472
Prospera Credit Union,Credit Union,102,1688,152 St,V4A4N2,6045388200,12,SSTC,522130,-122.8008931,49.03243524
South Fraser Community Services Society,Apartment Rentals,0,10689,135A St,V3T4E3,6045898678,1,SCC,531111,-122.8471032,49.19690819
Solid Rock Steel Fabricating Co Ltd,Mfg. - Specializing in Structural Steel,0,17780,Daly Rd,V4N4M5,6045811151,30,GTC,332999,-122.7294162,49.18840879
David Hunter Garden Centres Inc,Retail - Nursery Supplies,0,15175,72 Ave,V3S2G3,6045902431,4,NTC,444220,-122.8019849,49.13387796
Hallmark Air Conditioning A Div. Of Ainsworth Inc,Heating Air Conditioning & Refrigeration,104,17741,65A Ave,V3S1Z8,6045761355,25,CTC,232520,-122.7310256,49.12132995
Sunnyside Evergreen Pharmacy,Retail Merchant - Drug Store,0,2397,King George Hwy,V4A5A4,6045364404,6,SSTC,446110,-122.7946148,49.04517332
Sunnyside Evergreen Pharmacy,Retail Merchant - Drug Store,0,2397,King George Hwy,V4A5A4,6045364404,6,SSTC,446120,-122.7946148,49.04517332
Canadian Tire Associate Store #622,Retail Hardware & Auto Accessories,0,3059,152 St,V4P3K1,6045424317,60,SSTC,452110,-122.8021014,49.0574412
Canadian Tire Associate Store #622,Retail Hardware & Auto Accessories,0,3059,152 St,V4P3K1,6045424317,60,SSTC,811111,-122.8021014,49.0574412
K G Wardstrom - Industrial Gas,Industrial Gas Services Cont.,211,9654,192 St,V4N4C6,6048882077,8,GTC,232520,-122.6900169,49.17800549
Riverside Golf Centre (3600 King George Hwy),"Driving Range, Chip & Putt, Sporting Goods & Restaurant",0,3600,King George Hwy,V4P1B5,6045313555,10,SSTC,451110,-122.8201871,49.06779111
Riverside Golf Centre (3600 King George Hwy),"Driving Range, Chip & Putt, Sporting Goods & Restaurant",0,3600,King George Hwy,V4P1B5,6045313555,10,SSTC,713910,-122.8201871,49.06779111
Riverside Golf Centre (3600 King George Hwy),"Driving Range, Chip & Putt, Sporting Goods & Restaurant",0,3600,King George Hwy,V4P1B5,6045313555,10,SSTC,722110,-122.8201871,49.06779111
A A C Woodworking & Mfg Ltd,Mfg. - Custom Woodworking & Manufacturing,0,13315,72 Ave,V3W2N5,6045943288,7,NTC,321919,-122.853593,49.13422407
7 Days Seafoods & Groceries,Seafood & Groceries,0,10711,King George Hwy,V3T2X6,6045852258,4,SCC,445210,-122.8456613,49.197308
Shanahan's Limited Partnership,General Construction Contractor,0,8400,124 St,V3W6K1,6045915111,60,NTC,332321,-122.8789904,49.15602194
Greenbarn Potters Supply Ltd,Retail & Whlse. Pottery Supplies,0,9548,192 St,V4N3R9,6048883411,5,GTC,418990,-122.690271,49.17597817
Greenbarn Potters Supply Ltd,Retail & Whlse. Pottery Supplies,0,9548,192 St,V4N3R9,6048883411,5,GTC,453999,-122.690271,49.17597817
Budget Brake & Muffler,Brake & Muffler Serv.,0,13718,104 Ave,V3T1W4,6045888588,5,SCC,811119,-122.8421809,49.19140677
Scott Spring Ltd,"Auto & Truck Suspension,Vending Machine",0,10805,Scott Rd,V3V4G5,6045802876,8,WTC,415310,-122.88309,49.19904574
Bevco Sales International Inc,Mfg. - Conveyor Systems,0,9354,194 St,V4N4E9,6048881455,16,GTC,333920,-122.6847373,49.17294277
Columbia Collision Repairs Ltd,Auto Body & Repair,101,7945,132 St,V3W4N2,6045968222,8,NTC,811121,-122.8570565,49.14705123
MacNaughton & Ward Ltd,Insurance Agency,1276,10355,152 St,V3R7P8,6045816121,23,GTC,524210,-122.8014023,49.18981199
Hallmark Ford Sales Ltd,"Auto Sales/Serv.,  Auto Body Repair",0,10025,152 St,V3R4G6,6045841222,62,GTC,441110,-122.8012132,49.18453164
Hallmark Ford Sales Ltd,"Auto Sales/Serv.,  Auto Body Repair",0,10025,152 St,V3R4G6,6045841222,62,GTC,811111,-122.8012132,49.18453164
Hallmark Ford Sales Ltd,"Auto Sales/Serv.,  Auto Body Repair",0,10025,152 St,V3R4G6,6045841222,62,GTC,811121,-122.8012132,49.18453164
Steve Nash Sports Club,Fitness Centre,0,13821,103 Ave,V3T5B5,6045881517,55,SCC,713940,-122.8393583,49.18981624
Avalon & Surrey Funeral Home & Cremation Centre,Funeral Home,0,13288,108 Ave,V3T2J6,6045814401,5,SCC,812210,-122.8543665,49.1987819
Precision Hearing Clinic Inc,Hearing Aid Consultant,0,10237,King George Hwy,V3T2W6,6045857414,2,SCC,541619,-122.8456895,49.18876422
Trowel Trades Accessories Ltd,Mfg. - Building Material,0,2158,191 St,V3S3M3,6045366100,9,SSTC,332999,-122.6942973,49.04121505
Edelweiss Auto Repairs Ltd,"Auto Repair & Body Shop,Auto Body/Painting,Automobile Dealer/Rebuilder",0,7951,128 St,V3W4E7,6045902151,6,NTC,81111,-122.86824,49.14739104
Edelweiss Auto Repairs Ltd,"Auto Repair & Body Shop,Auto Body/Painting,Automobile Dealer/Rebuilder",0,7951,128 St,V3W4E7,6045902151,6,NTC,81112,-122.86824,49.14739104
Edelweiss Auto Repairs Ltd,"Auto Repair & Body Shop,Auto Body/Painting,Automobile Dealer/Rebuilder",0,7951,128 St,V3W4E7,6045902151,6,NTC,811111,-122.86824,49.14739104
White Rock Sports & Imports,Auto Sales/Serv.,0,3601,King George Hwy,V4P1B6,6045364533,3,SSTC,441110,-122.8212718,49.06748982
White Rock Sports & Imports,Auto Sales/Serv.,0,3601,King George Hwy,V4P1B6,6045364533,3,SSTC,811111,-122.8212718,49.06748982
White Rock Veterinary Hospital Ltd,Veterinarian,0,2460,152 St,V4P1M8,6045367618,16,SSTC,541940,-122.8009542,49.04671132
M J M Furniture Center Ltd (77 Ave),Retail Furniture,0,13570,77 Ave,V3W6Y3,6045969901,8,NTC,442110,-122.8465637,49.14253883
Superior Trophies Ltd,Trophies & Awards,0,13567,105A Ave,V3T2A9,6045843133,2,SCC,453220,-122.8463299,49.19459687
Aqua-Pak Styro Containers Ltd,Mfg. - Styrofoam Containers,0,7398,132 St,V3W4M7,6045902886,52,NTC,326198,-122.8564551,49.13751614
Ultimate Performance Ltd,Automotive Repair,71,15515,24 Ave,V4A2J4,6045366444,4,SSTC,811111,-122.7926614,49.04577262
Carillon Music Ltd,"Retail - Pianos, Lessons & Music Accessories",0,7050,King George Hwy,V3W4Z9,6045911161,22,NTC,451140,-122.8453091,49.13059181
Carillon Music Ltd,"Retail - Pianos, Lessons & Music Accessories",0,7050,King George Hwy,V3W4Z9,6045911161,22,NTC,611610,-122.8453091,49.13059181
Precision Propeller Surrey Ltd,"Sales/Serv., Marine Propellers & Aluminum Fabricating,Manufacturer/Machine Shop",18,13325,76 Ave,V3W2V8,6045967311,3,NTC,811490,-122.852977,49.14108344
OK Tire & Auto Service Newton,Automotive Repair,0,7237,King George Blvd,V3W5A7,6045915222,6,NTC,811111,-122.8459236,49.13439294
OK Tire & Auto Service Newton,Automotive Repair,0,7237,King George Blvd,V3W5A7,6045915222,6,NTC,811112,-122.8459236,49.13439294
Harms Auto Body & Paint Ltd,Auto Body Repair,0,13565,105 Ave,V3T1Z8,6045845111,7,SCC,811121,-122.846488,49.19324867
Fraser Heights Animal Hospital,Professional Practitioner-Veterinarian,0,15585,104 Ave,V3R1N9,6045884161,25,GTC,541940,-122.7902142,49.19174689
Whalley Printers & Stationers,"Office Supplies, Offset Printing,Retail Merchant - Stationery",0,10715,King George Hwy,V3T2X6,6045883533,7,SCC,323119,-122.84568,49.19737396
Whalley Printers & Stationers,"Office Supplies, Offset Printing,Retail Merchant - Stationery",0,10715,King George Hwy,V3T2X6,6045883533,7,SCC,453210,-122.84568,49.19737396
Pine Lighting Ltd,Whlse. & Retail Lighting,0,6898,King George Blvd,V3W4Z9,6045918895,7,,414220,-122.8451639,49.12795016
Schmidt Berg & Company,Certified General Accountants,101,15399,102A Ave,V3R7K1,6045888585,8,GTC,541212,-122.7956937,49.18912067
Cascade Christian Counselling Assn,Psychotherapy Counselling,201,14980,104 Ave,V3R1M9,6045851411,3,GTC,624190,-122.8071734,49.19131445
M B E Auto Service,Automotive Repair Service,109,13375,76 Ave,V3W6J3,7785656502,3,NTC,441310,-122.8519335,49.1410544
M B E Auto Service,Automotive Repair Service,109,13375,76 Ave,V3W6J3,7785656502,3,NTC,811111,-122.8519335,49.1410544
Unique Custom Upholstery,Upholstery Of Restaurant Booths,120,12960,84 Ave,V3W1K7,6045973888,5,NTC,811420,-122.8640189,49.1551914
Scottsdale Lanes,Bowling Center & Lounge,0,12033,84 Ave,V3W3G4,6045963924,12,NTC,713950,-122.8889887,49.15611731
Scottsdale Lanes,Bowling Center & Lounge,0,12033,84 Ave,V3W3G4,6045963924,12,NTC,722410,-122.8889887,49.15611731
Purity Casting Alloys Ltd,Custom Alloying,15,18503,97 Ave,V4N3N9,6048880181,5,GTC,332999,-122.7096985,49.17918956
Trimlite ULC,Whlse. & Dist. of Wood Products & Glass,102,19350,Enterprise Way,V3S6J9,6045334111,1,CTC,416320,-122.6867781,49.10895029
Trimlite ULC,Whlse. & Dist. of Wood Products & Glass,102,19350,Enterprise Way,V3S6J9,6045334111,1,CTC,416340,-122.6867781,49.10895029
Trimlite ULC,Whlse. & Dist. of Wood Products & Glass,102,19350,Enterprise Way,V3S6J9,6045334111,1,CTC,493190,-122.6867781,49.10895029
Fruiticana Produce Ltd #22,Grocery Store,104,7028,120 St,V3W3M8,6045908864,5,NTC,445120,-122.8900449,49.13087217
Brick Warehouse LP The,Retail Merchant - Furniture & Appliances,0,10153,King George Hwy,V3T2W1,6045880808,40,SCC,442298,-122.8458478,49.18592247
General Paint (152 St),Retail Paint & Wallpaper,138,1959,152 St,V4A9E3,6045365747,6,SSTC,444120,-122.8014669,49.03727504
Turkey Party Makers Ltd,Whlse. Paper & Plastic Products,0,17950,55 Ave,V3S6C8,6045761467,15,CTC,812940,-122.7253151,49.10217858
Old Surrey Restaurant,Restaurant,0,13483,72 Ave,V3W2N7,6045962313,13,NTC,722110,-122.8488885,49.13375295
King George Automotive 2005 Ltd,Automotive Repair,9,7788,132 St,V3W0H5,6045967404,4,NTC,811111,-122.8565083,49.14406128
Fresgo Inn Restaurant,Restaurant,0,10102,King George Hwy,V3T2W4,6045880878,40,SCC,722110,-122.8450997,49.18621766
Altec Industries Ltd,Auto Repair Serv.,0,12352,84 Ave,V3W0J5,6045970355,8,NTC,811111,-122.8804918,49.1555839
Bank of Nova Scotia (Guildford Town Centre),Banking,0,2301,Guildford Town Centre,V3R7B9,6045863200,25,GTC,522111,-122.80271,49.192497
Guildford Golf & Country Club,"Golf Course, Lounge & Banquet Facilities",0,7929,152 St,V3S3M5,6045941435,50,NTC,451110,-122.801385,49.14458309
Guildford Golf & Country Club,"Golf Course, Lounge & Banquet Facilities",0,7929,152 St,V3S3M5,6045941435,50,NTC,713910,-122.801385,49.14458309
Guildford Golf & Country Club,"Golf Course, Lounge & Banquet Facilities",0,7929,152 St,V3S3M5,6045941435,50,NTC,722110,-122.801385,49.14458309
Guildford Golf & Country Club,"Golf Course, Lounge & Banquet Facilities",0,7929,152 St,V3S3M5,6045941435,50,NTC,722410,-122.801385,49.14458309
Maxwell Floors Ltd,"Contractor - Flooring Installation, Commercial flooring",0,8441,160 St,V4N0V6,6045972423,9,FTC,232430,-122.7790814,49.15629209
Pantry Restaurant The,Dining Room,0,2309,Guildford Town Centre,V3R7B9,6045883244,30,GTC,722110,-122.80271,49.192497
Knight & Day Restaurant,Dining Lounge,0,9677,King George Blvd,V3T2V3,6045887575,30,SCC,722110,-122.8460597,49.17836605
Kal Tire Distributors,Automotive Repair Service,0,13443,72 Ave,V3W2N7,6045978826,6,NTC,441310,-122.8499976,49.13376376
Kal Tire Distributors,Automotive Repair Service,0,13443,72 Ave,V3W2N7,6045978826,6,NTC,811111,-122.8499976,49.13376376
B & B Bearing & Electric Motor Ltd,"Whlse. Bearings, Power Transmission & Electric Motors & Repairs",10,7788,132 St,V3W0H5,6045913371,10,NTC,417230,-122.8565083,49.14406128
B & B Bearing & Electric Motor Ltd,"Whlse. Bearings, Power Transmission & Electric Motors & Repairs",10,7788,132 St,V3W0H5,6045913371,10,NTC,811119,-122.8565083,49.14406128
Scottsdale Veterinary Hospital,Veterinary Clinic,0,7072,120 St,V3W3M8,6045902121,20,NTC,541940,-122.8900789,49.13168242
Newton Petro Canada,Gas Station,0,13573,72 Ave,V3W2N9,6045967685,7,NTC,447190,-122.8462413,49.13373237
Newton Petro Canada,Gas Station,0,13573,72 Ave,V3W2N9,6045967685,7,NTC,811111,-122.8462413,49.13373237
Commander Warehouse Equipment,Warehouse - Equip.,0,5225,192 St,V3S8E5,6045745797,25,CTC,493190,-122.6934462,49.09827556
Naka Welding Inc,Welding & Light Fabricating,304,13395,76 Ave,V3W6K2,6045974977,3,NTC,811310,-122.8517127,49.14104962
John Bresnick & Associates,Professional Practitioner-Land Surveyor,113,13302,76 Ave,V3W2W1,6045918822,3,NTC,541370,-122.8542721,49.14074119
Clover Inn Beer & Wine Store,Beer & Wine Store,413,6466,176 St,V3S4G3,6045766751,4,CTC,445310,-122.7345741,49.11987488
Bozzini's Restaurant,Dining Lounge,105,13655,104 Ave,V3T1W3,6045886880,10,SCC,722110,-122.8437312,49.19173246
World Fabricators Ltd,Mfg. - Steel Fabrication,0,13135,116 Ave,V3R2S8,6045803337,15,WTC,332999,-122.858044,49.21362974
Hook & Ladder Pub,Neighbourhood Pub,0,8593,132 St,V3W4N8,6045902251,16,,722410,-122.8574375,49.15844548
Celltex Collision,Auto Body Repair,42006,12334,84 Ave,V3W0J5,6045979774,6,NTC,811121,-122.8809979,49.15559585
Fleetwood Arms Neighborhood Pub,Neighbourhood Pub,0,8410,160 St,V4N0V7,6045973220,27,FTC,722410,-122.778593,49.15561029
Peterbilt Pacific Inc,"Sales/Serv .Trucks,Lunch Room at RCMP,Vending Machine",0,19470,96 Ave,V4N4C2,6048881411,58,GTC,441110,-122.6831298,49.17680692
Peterbilt Pacific Inc,"Sales/Serv .Trucks,Lunch Room at RCMP,Vending Machine",0,19470,96 Ave,V4N4C2,6048881411,58,GTC,811118,-122.6831298,49.17680692
Haleys'  White Rock Dodge,Automotive Dealership,0,3050,King George Hwy,V4P1A2,6045319156,45,SSTC,441110,-122.8081022,49.05807362
Haleys'  White Rock Dodge,Automotive Dealership,0,3050,King George Hwy,V4P1A2,6045319156,45,SSTC,811111,-122.8081022,49.05807362
The Fin Pub,Neighbourhood Pub,0,7115,138 St,V3W7T9,6045960005,8,NTC,722410,-122.8391811,49.1320397
Gescan Electrical Distributors,Whlse.  - Electrical,201,13060,80 Ave,V3W3B2,6045965515,9,NTC,416110,-122.8602604,49.14800455
S C Tools Ltd,"Metal Cuting Tools, Machine Tools & Accessories",105,13463,78 Ave,V3W0A8,6045918818,2,NTC,418990,-122.8492779,49.14465788
Gold Key Sales and Lease Ltd,Automotive Servicing,0,19545,No 10 (Langley Bypass) Hwy,V3S6K1,6045347431,1,CTC,441110,-122.683812,49.106731
Gold Key Sales and Lease Ltd,Automotive Servicing,0,19545,No 10 (Langley Bypass) Hwy,V3S6K1,6045347431,1,CTC,441120,-122.683812,49.106731
Gold Key Sales and Lease Ltd,Automotive Servicing,0,19545,No 10 (Langley Bypass) Hwy,V3S6K1,6045347431,1,CTC,811111,-122.683812,49.106731
Gold Key Sales and Lease Ltd,Automotive Servicing,0,19545,No 10 (Langley Bypass) Hwy,V3S6K1,6045347431,1,CTC,811121,-122.683812,49.106731
River Cable Ltd,Mfg. - Wire Rope,0,11406,132A St,V3R7S2,6045804636,8,WTC,332999,-122.8549411,49.21023491
Alpine Non-Ferrous Foundry of Canada Ltd,Mfg. - Aluminum & Bronze Castings,0,8657,132 St,V3W4P1,6045968080,8,NTC,332999,-122.857187,49.15998518
Wheelhouse Beer & Wine Store,Liquor Licensee Retail Store,0,12911,96 Ave,V3V7K6,6045885162,14,SCC,445310,-122.8639829,49.17723513
Peace Arch Motors Ltd,Automobile Dealer,0,3174,King George Blvd,V4P1A2,6045312916,40,SSTC,441110,-122.8108891,49.05996717
Peace Arch Motors Ltd,Automobile Dealer,0,3174,King George Blvd,V4P1A2,6045312916,40,SSTC,811111,-122.8108891,49.05996717
Neighbourhood Auto Glass & Upholstery Ltd,Auto Glass Install & Upholstery,202,5726,Landmark Way,V3S7H1,6045333398,4,CTC,811121,-122.683812,49.10673106
Neighbourhood Auto Glass & Upholstery Ltd,Auto Glass Install & Upholstery,202,5726,Landmark Way,V3S7H1,6045333398,4,CTC,811122,-122.683812,49.10673106
Boston Pizza (100 Ave),Restaurant,0,15125,100 Ave,V3R9P4,6045813600,70,GTC,722110,-122.803407,49.18440821
F P B Insurance Brokers,Insurance Broker,0,17681,57 Ave,V3S1H1,6045753495,5,,524210,-122.7326257,49.10607948
Guildford Pet Foods,Retail Pet Food & Supplies,0,15585,104 Ave,V3R1N9,6045884115,3,GTC,453910,-122.7902142,49.19174689
Anastasa Restaurant,Dining Lounge,0,13486,72 Ave,V3W2N8,6045942322,12,NTC,722110,-122.8487895,49.13339373
Vairo's Collision Repairs,Auto Body Repair,14,7711,128 St,V3W4E6,6045999331,1,NTC,811121,-122.8681705,49.14300858
Phaser Fire Protection,Contractor - Sprinkler,2,19080,96 Ave,V4N3R3,6048880318,35,GTC,232530,-122.6944152,49.1768378
Parkinson's Heating Ltd,Heating Cont.,0,7566,134A St,V3W7J1,6045998444,12,NTC,232520,-122.8499882,49.14042166
East West Fabrics Inc,Retail Merchant - Clothing,106,7028,120 St,V3W3M8,6045908861,2,NTC,448199,-122.8900449,49.13087217
Precision Metals Ltd,Manufacturer - Roofing Products,0,8075,132 St,V3W4N5,6045946001,25,NTC,332999,-122.8569607,49.14957712
The Fin Liquor Store,Cold Beer & Wine Store,229,7115,138 St,V3W7T9,6045960005,7,NTC,445310,-122.8391811,49.1320397
Longley Electric Co Ltd,"Mfg. - Sheet Metal, Industrial Fans & Heaters",0,7911,128 St,V3W4E7,6045916426,6,NTC,332999,-122.8682328,49.14659995
Longley Electric Co Ltd,"Mfg. - Sheet Metal, Industrial Fans & Heaters",0,7911,128 St,V3W4E7,6045916426,6,NTC,333299,-122.8682328,49.14659995
Langley Chrysler Jeep,"Sales, Serv. & Leasing Auto",0,19418,Langley Bypass,V3S7R2,6045345355,65,CTC,441110,-122.683812,49.106731
Langley Chrysler Jeep,"Sales, Serv. & Leasing Auto",0,19418,Langley Bypass,V3S7R2,6045345355,65,CTC,811111,-122.683812,49.106731
E & H Hitch Shop,Ironwork & Welding Repair,0,8155,128 St,V3W4G1,6045901776,6,NTC,811310,-122.8682794,49.15116089
Wolfe's Langley Mazda,"Sales, Serv. & Leasing Auto",0,19360,Langley Bypass,V3S7R2,6045340181,30,CTC,441110,-122.683812,49.106731
Wolfe's Langley Mazda,"Sales, Serv. & Leasing Auto",0,19360,Langley Bypass,V3S7R2,6045340181,30,CTC,811111,-122.683812,49.106731
Ron-Sons Torch Repairs Sales Ltd,Whlse. Welding Supplies & Welding Repairs,1,9677,192 St,V4N4C7,6048884481,8,GTC,417230,-122.6906507,49.17831074
Ron-Sons Torch Repairs Sales Ltd,Whlse. Welding Supplies & Welding Repairs,1,9677,192 St,V4N4C7,6048884481,8,GTC,811310,-122.6906507,49.17831074
Magicuts  5478,Beauty Salon,190,7488,King George Hwy,V3W0H9,6045995868,3,NTC,812115,-122.8452552,49.13853724
New Image Millwork Ltd,Mfg. - Cabinets,105,13375,76 Ave,V3W6J3,6045961999,7,NTC,337110,-122.8519335,49.1410544
Belfor Canada Inc,General Construction Contractor,0,7677,132 St,V3W4M8,6045999980,24,NTC,232290,-122.8570509,49.14236233
Amos Ferguson Manor,Seniors Housing Apartment Rentals,101,8243,152 St,V3S3M6,6045901522,3,FTC,531111,-122.8016299,49.15263108
Oto Hearing Products Ltd,"Mfg. - Hearing Aid, Ear Molds, Ear Defenders,Wholesale,Recreational Facility,Warehouse",214,12837,76 Ave,V3W2V3,6045901211,10,NTC,339110,-122.8666709,49.141185
Refillink,Importer & Whlse. Home Accessories,113,12827,76 Ave,V3W2V3,6045941123,4,NTC,493190,-122.867155,49.14117557
Homecraft Manufacturing Corp,"Light Metal Fabrication, CNC Equipment, Sauna Heaters & Controls and Equipment",216,9654,192 St,V4N4C6,6048883403,8,GTC,332319,-122.6900169,49.17800549
Greater Vancouver Community Credit Union,Credit Union,0,15280,101 Ave,V3R4G5,6045844434,9,GTC,522130,-122.7986031,49.18597274
Macy's Blinds Manufacturing Co Ltd,Manufacturer - Venetian Blinds,0,12995,80 Ave,V3W3B1,6045991928,1,NTC,314120,-122.8627474,49.14833004
Pro Draft Incorporated,Drafting Consultant,205,12332,Pattullo Pl,V3V8C3,6045896425,10,WTC,541340,-122.8803459,49.20402977
Peter F Pook Insurance (King George Hwy),Insurance Agency,2325,10153,King George Highway,V3T2W1,6045810404,7,SCC,524210,-122.8455484,49.18696119
H Y Engineering Ltd,"Engineering Office, Civil Engineering",200,9128,152 St,V3R4E7,6045831616,31,FTC,541330,-122.8010668,49.16881906
International Gems Inc,Retail Jewelry & Giftware,120,1959,152 St,V4A9E3,6045363622,5,SSTC,448310,-122.8014669,49.03727504
Jonker Honda,Automobile Sales,0,19515,No 10 (Langley Bypass) Hwy,V3S6K1,6045306281,42,CTC,441110,-122.683812,49.106731
Jonker Honda,Automobile Sales,0,19515,No 10 (Langley Bypass) Hwy,V3S6K1,6045306281,42,CTC,811111,-122.683812,49.106731
Bender Painting & Decorating Ltd,Painting Cont.,204,12837,76 Ave,V3W2V3,6045918000,21,NTC,232450,-122.8666709,49.141185
Latoplast Ltd,Whlse. Safety Supplies,208,7889,132 St,V3W4N2,6045919773,10,NTC,417990,-122.8570756,49.14629384
Cambridge Press Ltd,"4 Color Press Printer, PrePress, Graphics & Desktop Publishing",1,8125,130 St,V3W7X4,6045999157,3,NTC,323119,-122.8624999,49.1498543
Cambridge Press Ltd,"4 Color Press Printer, PrePress, Graphics & Desktop Publishing",1,8125,130 St,V3W7X4,6045999157,3,NTC,511190,-122.8624999,49.1498543
Cambridge Press Ltd,"4 Color Press Printer, PrePress, Graphics & Desktop Publishing",1,8125,130 St,V3W7X4,6045999157,3,NTC,541430,-122.8624999,49.1498543
Cambridge Press Ltd,"4 Color Press Printer, PrePress, Graphics & Desktop Publishing",1,8125,130 St,V3W7X4,6045999157,3,NTC,561410,-122.8624999,49.1498543
Arctic Glacier Inc,Mfg. - Ice Products,0,9679,186 St,V4N3N8,6048884311,11,GTC,311990,-122.7079196,49.17832035
L J Custom Sheet Metal Ltd,Mfg. - Sheet Metal Products,0,17940,Roan Pl,V3S5K1,6045745330,19,CTC,332999,-122.7251025,49.10089055
Keystone Forest Products Ltd,Whlse. Lumber,0,11598,132A St,V3R7S2,6045802234,5,WTC,416320,-122.8547266,49.21303239
Walrus Truck & Crane Services Ltd,Crane & Cartage,0,10979,Olsen Rd,V3V3S9,6045802626,7,WTC,484120,-122.8915487,49.20209869
Mercana Art Decor Inc,Manufacturer - Picture Frames,16,13478,78 Ave,V3W8J6,6045961668,35,NTC,321919,-122.849141,49.14433962
Home Hardware Ltd,"Hardware,Retail Merchant",101,1645,140 St,V4A4H1,6045366564,6,SSTC,444130,-122.834484,49.03205692
International Currency Exchange,Second Hand Dealer - Antiques,0,15241,16 Ave,V4A1R6,6045350222,3,SSTC,453310,-122.8001024,49.03125812
International Currency Exchange,Second Hand Dealer - Antiques,0,15241,16 Ave,V4A1R6,6045350222,3,SSTC,523130,-122.8001024,49.03125812
Allondale Animal Hospital Ltd,"Veterinarian, Small Animals",0,14715,108 Ave,V3R1V9,6045810491,9,GTC,541940,-122.8149991,49.19889111
#1 Impex Canada Ltd,Wholesaler,101,12815,85 Ave,V3W0K8,6045946862,3,NTC,418990,-122.8674407,49.15759827
#1 Impex Canada Ltd,Wholesaler,101,12815,85 Ave,V3W0K8,6045946862,3,NTC,419199,-122.8674407,49.15759827
Docksteader Sports Ltd,Retail - Sporting Goods,101,2381,King George Hwy,V4A5A4,6045366776,6,SSTC,451110,-122.7941418,49.04479007
Peace Arch Golf Centre,Driving Range & Lessons,0,765,172 St,V4B5A8,6045411214,3,SSTC,713910,-122.7465567,49.01601444
Iris Sun & Sport,Retail Merchant - Optical Wear,0,1167,Guildford Town Centre,V3R7B7,6045895350,4,GTC,446130,-122.80271,49.192497
Ambassador Auto Repair,Auto Repair,0,15167,Fraser Hwy,V3R3P2,6045899336,3,FTC,811111,-122.8021886,49.16659288
Cullen Diesel Power Ltd,Diesel Engine Repair & Sales,0,9300,192 St,V4N3R8,6048881211,160,GTC,336310,-122.6900802,49.17132712
Cullen Diesel Power Ltd,Diesel Engine Repair & Sales,0,9300,192 St,V4N3R8,6048881211,160,GTC,811111,-122.6900802,49.17132712
Canadian Inn,Motel,0,6528,King George Hwy,V3W4Z3,6045940010,4,NTC,721114,-122.8451081,49.12126855
Group Health Global Benefit Systems Inc,"Consulting Service - Group Benefits
Also occupying 203-212",200,2626,Croydon Dr,V3S0S8,6045368887,83,SSTC,541619,-122.788626,49.04943531
Gary's Automotive,Automotive Repair,0,19082,32 Ave,V3S0L5,6045411818,4,SSTC,811111,-122.6945573,49.05992806
Trans Continental Textile Recycling Ltd,Clothing Processing,0,13120,78A Ave,V3W1P4,6045922845,85,NTC,418190,-122.8591926,49.14548586
T D Canada Trust City Centre,Bank,0,10435,King George Hwy,V3T2W7,6045862000,41,SCC,522111,-122.8456473,49.19224354
Finning Ltd (Truck Engine Service),"Whlse. Cat Engine Parts, Engine Serv.,Class 8 truck & trailer sales",0,19498,92 Ave,V4N4G7,6048883406,39,GTC,415120,-122.6830005,49.16999663
Finning Ltd (Truck Engine Service),"Whlse. Cat Engine Parts, Engine Serv.,Class 8 truck & trailer sales",0,19498,92 Ave,V4N4G7,6048883406,39,GTC,415290,-122.6830005,49.16999663
Finning Ltd (Truck Engine Service),"Whlse. Cat Engine Parts, Engine Serv.,Class 8 truck & trailer sales",0,19498,92 Ave,V4N4G7,6048883406,39,GTC,811111,-122.6830005,49.16999663
K V Piano Man Ltd,"New & Used Pianos, Sales/Serv.",13,15531,24 Ave,V4A2J4,6045381847,2,SSTC,811490,-122.7920343,49.04577186
Extra Innings,"Stadium Class ""E"" Liquor License",0,2201,148 St,V4A9P5,6045313220,25,SSTC,451110,-122.8126648,49.04159902
Extra Innings,"Stadium Class ""E"" Liquor License",0,2201,148 St,V4A9P5,6045313220,25,SSTC,713990,-122.8126648,49.04159902
Extra Innings,"Stadium Class ""E"" Liquor License",0,2201,148 St,V4A9P5,6045313220,25,SSTC,722410,-122.8126648,49.04159902
Michael & Young Flyfishing Supplies Inc,Retail Merchant - Flyfishing Supplies,0,10484,137 St,V3T4H5,6045882833,5,SCC,451110,-122.848899,49.191464
Y V R Air Truck Freight Systems Inc,Import/Export Trucking & Cartage,67,15515,24 Ave,V4A2J4,6045381040,6,SSTC,484120,-122.7926614,49.04577262
Carpet Centre The,Retail Carpets,108,15551,Fraser Hwy,V3S2V8,6045899696,9,FTC,442210,-122.7912586,49.16241879
Dogwood Campground,"Grocery Store, Camp Grounds & R V Park, Laundromat, Arcade, Pool & Hot Tub",0,15151,112 Ave,V3R6G8,6045835585,6,GTC,445120,-122.8016613,49.20619471
Dogwood Campground,"Grocery Store, Camp Grounds & R V Park, Laundromat, Arcade, Pool & Hot Tub",0,15151,112 Ave,V3R6G8,6045835585,6,GTC,721211,-122.8016613,49.20619471
Dogwood Campground,"Grocery Store, Camp Grounds & R V Park, Laundromat, Arcade, Pool & Hot Tub",0,15151,112 Ave,V3R6G8,6045835585,6,GTC,812310,-122.8016613,49.20619471
Ed Schram Motors Ltd (76 Ave),Auto Repair,112,13375,76 Ave,V3W6J3,6045996081,6,NTC,811111,-122.8519335,49.1410544
Four Star Electric Ltd,Contractor - Electrical,221,12837,76 Ave,V3W2V3,6045902424,9,NTC,232510,-122.8666709,49.141185
Walia Insurance Agencies Ltd (96 Ave),Insurance Agency,2,12830,96 Ave,V3V6A8,6045887188,2,WTC,524210,-122.8670944,49.17696905
Clover Collision Repairs (2013) Ltd,Auto Body Repair,4,5422,176 St,V3S4C3,6045766016,3,CTC,811121,-122.734787,49.1009071
Coast Capital Savings Credit Union,Financial Institution,2791,10153,King George Hwy,V3T2W1,6045814511,17,SCC,522130,-122.8458478,49.18592247
Ed Schram Motors Ltd (132 St),"Auto Body Repair, Auto Repair, Used Auto Sales",0,7815,132 St,V3W4M8,6045998844,3,NTC,441120,-122.8570088,49.14473476
Ed Schram Motors Ltd (132 St),"Auto Body Repair, Auto Repair, Used Auto Sales",0,7815,132 St,V3W4M8,6045998844,3,NTC,811111,-122.8570088,49.14473476
Ed Schram Motors Ltd (132 St),"Auto Body Repair, Auto Repair, Used Auto Sales",0,7815,132 St,V3W4M8,6045998844,3,NTC,811121,-122.8570088,49.14473476
Canada Engines Ltd,Remfg. & Inst. Auto & Light Truck Engines,0,12345,114 Ave,V3V3N6,6045801050,15,WTC,336310,-122.8797243,49.21002223
Convoy Supply Ltd,"Whlse. Roofing, Vinyl Siding & Fibreglass Insulation",0,8183,130 St,V3W7X4,6045915381,60,NTC,444190,-122.8625431,49.15160935
Robin Hood Beer & Wine Store,Beer & Wine Store,0,13468,72 Ave,V3W2N8,6045946265,6,NTC,445310,-122.8493956,49.13342123
BC Region of Firstonsite Restoration LP,"Providing full range of disaster restoration cleaning services,Contractor - Restoration",24,13260,78 Ave,V3W0H6,6045901440,65,NTC,232290,-122.855156,49.14439494
Evancic Perrault Robertson,Certified General Accountant,0,1656,Martin Dr,V4A6E7,6045367778,3,SSTC,541212,-122.8050313,49.03206461
Pan American Nursery Products Inc,Whlse. Nursery Stock,0,5151,152 St,V4P2J9,6045768641,1,NTC,111422,-122.8015764,49.09660892
Pan American Nursery Products Inc,Whlse. Nursery Stock,0,5151,152 St,V4P2J9,6045768641,1,NTC,418990,-122.8015764,49.09660892
Coastwise Fisheries Inc,Mfg. - Seafood Processing,11,9548,192 St,V4N3R9,6048881992,4,GTC,311710,-122.690271,49.17597817
Wingtat Game Bird Packers Inc,Game Bird Processing Plant,0,9752,186 St,V4N3N7,6048820054,50,GTC,311615,-122.7074045,49.17968467
Vancouver Axle & Frame Ltd,Truck & Auto Repair,0,19548,96 Ave,V4N4C3,6048825112,11,GTC,811111,-122.6811907,49.17680438
Guildford Station Pub,Neighbourhood Pub,0,10176,154 St,V3R4J6,6045897668,50,GTC,445310,-122.7950644,49.18758872
Guildford Station Pub,Neighbourhood Pub,0,10176,154 St,V3R4J6,6045897668,50,GTC,722410,-122.7950644,49.18758872
Aidelbaum Dr Martin R,Oral & Maxillofacial Surgeon,404,15127,100 Ave,V3R0N9,6045897000,5,GTC,621210,-122.8031241,49.18523907
Semiahmoo Physiotherapist Corp,Physiotherapy,680,15355,24 Ave,V4A2H9,6045318080,4,SSTC,621340,-122.7975044,49.04583671
Purba Custom Furniture Mfg Ltd,"Mfg. - Furniture
Units A, B, C & D",0,8065,130 St,V3W7X4,6045915435,14,NTC,337123,-122.8624759,49.14929776
Symmetric Machining Ltd,Mfg.- Steel Products,102,17728,66 Ave,V3S7X1,6045762876,10,CTC,332319,-122.7313503,49.12219733
Laser Valley Technologies Corp,Recharge Toner Cartridges,1,9761,192 St,V4N4C7,6048887085,28,GTC,339940,-122.690633,49.17987575
International Currency Exchange,Currency Exchange,0,13635,100 Ave,V3T1H9,6045820088,2,SCC,523130,-122.8441802,49.18443683
Quadra Control Weigh Systems,Mfg. - Steel Fabrication - Design of Plant Controls Systems and Equipment,0,18525,96 Ave,V4N3P7,6048883636,15,GTC,332999,-122.7090767,49.17718186
Cole International,"Custom Broker,Vending Machine",201,17637,1 Ave,V3S9S1,6045381512,10,SSTC,488519,-122.7338262,49.00414157
Chocolaterie Bernard Callebaut,Retail - Chocolates,240,15355,24 Ave,V4A2H9,6045316777,2,SSTC,445292,-122.7975044,49.04583671
Clydesdale Inn,"Motel, Pub & Restaurant",0,17630,56 Ave,V3S1C5,6045762826,12,CTC,721114,-122.7340981,49.10399668
Clydesdale Inn,"Motel, Pub & Restaurant",0,17630,56 Ave,V3S1C5,6045762826,12,CTC,722410,-122.7340981,49.10399668
Versatile Fiberglass Inc,Mfg. - Fibreglass Products,8,19351,94 Ave,V4N4E6,6048881919,2,GTC,327990,-122.6861974,49.17373312
P C B Highway Sufference Warehouse,Trucking Serv.,155,17735,1 Ave,V3S9S1,6045381566,4,SSTC,484120,-122.7316001,49.00400041
Jubilee Rose Enterprises Ltd,Warehouse,0,15515,24 Ave,V4A2J4,6045355087,3,SSTC,417310,-122.7926614,49.04577262
Rife Dr David A,Professional Practitioner-Dentist,0,5746,176 St,V3S4C8,6045744262,4,CTC,621210,-122.7348126,49.10676512
Basant Motors Ltd,Automobile Sales,0,16315,Fraser Hwy,V4N0G1,6045727880,30,FTC,441110,-122.7699316,49.15416976
Ener-Save Fire Safety,"Contractor - Plumbing, Heating, Gas & Electric",24,15515,24 Ave,V4A2J4,6045358001,2,SSTC,232510,-122.7926614,49.04577262
Ener-Save Fire Safety,"Contractor - Plumbing, Heating, Gas & Electric",24,15515,24 Ave,V4A2J4,6045358001,2,SSTC,232520,-122.7926614,49.04577262
Margranite Industries Ltd,Mfg. - Granite Tile,0,19135,94 Ave,V4N3S4,6048883161,12,GTC,327990,-122.6926291,49.17354657
Wardan Enterprises Ltd,"Dist. Furnace Oil,Contractor - Fire Protection",0,13181,116 Ave,V3R2S8,6045800002,1,WTC,412110,-122.856851,49.2136324
Trademark Custom Homes & Renovations,General Construction Contractor,200,6245,136 St,V3X1H3,6045901155,10,NTC,231210,-122.8456216,49.11624401
Envision Financial A Division Of First West Credit Union,Bank,710,3061,152 St,V4P3K1,6045014270,15,SSTC,522130,-122.8021027,49.05755824
Canada Trust (72 Ave),Banking,0,13650,72 Ave,V3W2P3,6045728188,45,NTC,522111,-122.8439026,49.13337599
Zinetti Food Products Ltd,Manufacturer - Food Products,0,17760,66 Ave,V3S7X1,6045742028,61,CTC,311990,-122.7300787,49.12219877
B & W Insurance Agency (Fraser Hwy),Insurance Agency,0,16007,Fraser Hwy,V4N0G2,6045976555,9,FTC,524210,-122.7785357,49.15745756
Applied Science Technologists & Technicians of BC,Non Profit - Professional Association,0,10767,148 St,V3R0S4,6045852788,24,GTC,813920,-122.8127398,49.19804552
A B C Metals,Scrap Metal Recycling,0,19355,54 Ave,V3S8E5,6045149411,12,CTC,418190,-122.6864431,49.10109319
Lawrenson Walker Realty Advisors Ltd,Real Estate Appraisal Consultant,200,1678,128 St,V4A3V3,6045351494,6,SSTC,531320,-122.8672643,49.03261228
Lifelabs B C LP,Medical Laboratory,105,1656,Martin Dr,V4A6E7,6045916717,8,SSTC,621510,-122.8050313,49.03206461
Adams Beverages Ltd,Mfg. - Soft Drinks,60,13320,116 Ave,V3R0R8,6045806811,14,WTC,312110,-122.848899,49.191464
The Body Shop,Natural Cosmetics,0,2542,Guildford Town Centre,V3R7C1,6045885440,8,GTC,446120,-122.80271,49.192497
Big Gary's Vac Wholesale,Retail - Vacuum Cleaners & Repair,600,15355,24 Ave,V4A2H9,6045317614,6,SSTC,443110,-122.7975044,49.04583671
Excell Battery Company,Wholesale - Batteries,133,18525,53 Ave,V3S7A4,6045755011,28,CTC,415290,-122.7090156,49.09906465
National Truck Centre Inc (Volvo Truck),"Truck Sales, Repair & Inspection",0,18964,96 Ave,V4N3R2,6048885577,65,GTC,441110,-122.6970809,49.17682272
National Truck Centre Inc (Volvo Truck),"Truck Sales, Repair & Inspection",0,18964,96 Ave,V4N3R2,6048885577,65,GTC,811118,-122.6970809,49.17682272
Surrey Monument Co 1992 Ltd,Manufacturer - Monuments,0,10324,120 St,V3V4G1,6045828000,4,WTC,339990,-122.8898744,49.19034321
Vancouver Display Services Inc,Event Decorators,21,8528,123 St,V3W3V6,6045991440,10,NTC,812940,-122.8814617,49.15808561
Metro Waste Paper Recovery Inc,Multi-Material Processing,0,12345,104 Ave,V3V3H2,6045894385,63,WTC,418190,-122.8828314,49.19233318
Western Natural Gas Products Ltd,"Mfg. - Brass Assembly/Gas Regulator Sales,Wholesale,Cabinet Doors,Woodworking",8,13015,84 Ave,V3W1B3,6045991900,8,NTC,332999,-122.8620631,49.15571126
Wilson Properties Inc,Property Mgmt.,0,18946,98 Ave,V4N3R6,6048884242,1,GTC,531310,-122.6981827,49.18052895
Don Wotherspoon & Associates Ltd,Insurance Agency,405,16033,108 Ave,V4N1P2,6049519488,5,GTC,524210,-122.7777544,49.1989669
Hub International Insurance Brokers,General Insurance & Autoplan,0,13630,72 Ave,V3W2P3,6045969571,10,NTC,524210,-122.8443912,49.13337116
Maple Leaf Self Storage,Self Storage,0,5758,Landmark Way,V3S7H1,6045331030,3,CTC,493190,-122.6823738,49.10747051
Lark Projects Ltd.,Contractor - Construction,101,17802,66 Ave,V3S7X1,6045762935,144,CTC,231230,-122.7289638,49.12218716
D N R Towing Inc,Towing - With Storage,0,10671,Timberland Rd,V3V3T3,6045800005,16,WTC,488410,-122.8974492,49.19649615
Peace Portal Golf Course,Par 3 Golf Course,0,17065,4 Ave,0,6045384818,5,SSTC,451110,-122.7508288,49.01136299
Peace Portal Golf Course,Par 3 Golf Course,0,17065,4 Ave,0,6045384818,5,SSTC,713910,-122.7508288,49.01136299
F & G Delivery Ltd,Trucking,0,9324,192 St,V4N3R8,6048885150,16,GTC,484120,-122.6903047,49.17231349
Cedar Hills Pet Supplies & Grooming,Retail Pet Supplies & Grooming,0,12859,96 Ave,V3V6V9,6045839335,2,SCC,453910,-122.8655142,49.17731308
Cedar Hills Pet Supplies & Grooming,Retail Pet Supplies & Grooming,0,12859,96 Ave,V3V6V9,6045839335,2,SCC,812910,-122.8655142,49.17731308
Park Derochie Seaside Coatings Inc,Industrial Painting & Sandblasting,0,10095,179 St,V4N4J6,6045836758,15,GTC,232450,-122.7258134,49.18599192
Lentia Enteprises Ltd,Whlse. Bakery Supplies & Equipment,0,17733,66 Ave,V3S7X1,6045768838,10,CTC,418990,-122.7313622,49.12251975
Bank Of Nova Scotia,Bank,201,16033,108 Ave,V4N1P2,6045863100,17,GTC,522111,-122.7777544,49.1989669
Makin Metals Division of Varsteel Ltd,Mfg. & Dist. of Metal Products,104,19433,96 Ave,V4N4C4,6048829344,23,GTC,332999,-122.6840319,49.17776228
Braverman Dr Martin P,Professional Practitioner-Dentist,302,7380,King George Hwy,V3W5A5,6045905297,5,NTC,621210,-122.8452107,49.13673593
Dr Raymon P Grewal Inc,Professional Practitioner-Dentist,302,7380,King George Hwy,V3W5A5,6045905297,5,NTC,621210,-122.8452107,49.13673593
Stengar Homes Ltd,Residential Cont.,11,13478,78 Ave,V3W8J6,6045908128,1,NTC,231210,-122.849141,49.14433962
Dell Lanes Ltd,Bowling Alley,0,10576,King George Hwy,V3T2X3,6045818230,3,SCC,713950,-122.8449254,49.1952329
Dell Lanes Ltd,Bowling Alley,0,10576,King George Hwy,V3T2X3,6045818230,3,SCC,722410,-122.8449254,49.1952329
Bleszynski Dr Maria,Physician,211,13710,94A Ave,V3V1N1,6045838334,4,WTC,621110,-122.842893,49.17453131
Chase Auto Body Supplies Ltd,"Whlse. Auto Paint & Body Supplies,Snowmobile Repairs,Millwork",13,19257,Enterprise Way,V3S6J8,6045305622,10,CTC,415290,-122.6896507,49.10795711
Apt Industries (2012) Ltd,"Blacksmith, Welding & Steel Fabricating",0,12361,Industrial Rd,V3V3S4,6045803605,5,WTC,811310,-122.8795782,49.21150929
Kekinow Native Housing Society (140 St),Housing - Non Profit,0,7561,140 St,V3W2N5,6045915299,2,NTC,531111,-122.8347787,49.14013284
European Sharpening,Sharpening Serv. & Retail Blades,2,8311,129 St,V3W0A6,6045908618,14,NTC,811490,-122.8658139,49.15385969
AI Industries,Mfg. - Miscellaneous & Structural Steel Fabrication & Welding,0,12349,104 Ave,V3V3H2,6045832171,60,WTC,332999,-122.8820577,49.19229543
Atwater Insurance,Insurance Agency,0,1711,152 St,V4A4N3,6045316631,6,SSTC,524210,-122.801669,49.0331143
Blue Steel Ltd,"Reinforcing, Rebar Steel Cont.,General Construction Contractor",0,11426,132A St,V3R7S2,6045808236,8,WTC,232290,-122.854808,49.21046456
Superior City Services Ltd,"Contractor - Street Cleaning,Contractor - Street Cleaning, Hydra Excavation",0,15151,64 Ave,V3S1X9,6045913434,40,NTC,232990,-122.8023706,49.11923232
Superior City Services Ltd,"Contractor - Street Cleaning,Contractor - Street Cleaning, Hydra Excavation",0,15151,64 Ave,V3S1X9,6045913434,40,NTC,488490,-122.8023706,49.11923232
National Silicates Ltd,Mfg. - Sodium/Magnesium Sulphate,0,8160,130 St,V3W8J9,6045960806,5,NTC,325999,-122.8620405,49.15149298
South Fraser Stairs Ltd,"Mfg. - Staircases, Railings",3,19110,96 Ave,V4N3R3,6048887789,8,GTC,321919,-122.6931809,49.17682471
Guildford Cab 1993 Ltd,Taxi Service,101,8299,129 St,V3W0A6,6045858888,1,NTC,485310,-122.8658521,49.15341481
Delta Controls Inc,Mfg. - Building Automation Systems,0,17850,No 10 (56 Ave) Hwy,V3S1C7,6045747790,138,CTC,334512,-122.7277503,49.10399442
Delta Controls Inc,Mfg. - Building Automation Systems,0,17850,No 10 (56 Ave) Hwy,V3S1C7,6045747790,138,CTC,334999,-122.7277503,49.10399442
Delta Controls Inc,Mfg. - Building Automation Systems,0,17850,No 10 (56 Ave) Hwy,V3S1C7,6045747790,138,CTC,541490,-122.7277503,49.10399442
Gerry Blonski - Architect,Professional Practitioner-Architect,0,12468,82 Ave,V3W3E9,6045723608,4,NTC,541310,-122.8772225,49.15183975
Blue Max Lighting & Emergency Eqpt Ltd,Electrical Installation & Repair,0,18446,53 Ave,V3S7A4,6045744062,8,CTC,232510,-122.7112526,49.09890618
Yamato Tech Corp,Whlse. Weigh Scales,112,19425,Langley Bypass,V3S6K1,6045332338,4,CTC,418990,-122.683812,49.106731
Falcon Equipment Ltd (18412 - 96 Ave),"Sales/Serv/Rental Skid Loaders, Crane & Hydraulic Truck Equipment Repair,Tool & Equipment Rentals",0,18412,96 Ave,V4N3P8,6048885066,55,GTC,417230,-122.7122437,49.17681275
Falcon Equipment Ltd (18412 - 96 Ave),"Sales/Serv/Rental Skid Loaders, Crane & Hydraulic Truck Equipment Repair,Tool & Equipment Rentals",0,18412,96 Ave,V4N3P8,6048885066,55,GTC,532490,-122.7122437,49.17681275
Falcon Equipment Ltd (18412 - 96 Ave),"Sales/Serv/Rental Skid Loaders, Crane & Hydraulic Truck Equipment Repair,Tool & Equipment Rentals",0,18412,96 Ave,V4N3P8,6048885066,55,GTC,811310,-122.7122437,49.17681275
A C R Systems Inc,Mfg. - Electronic Data Logging Equipment,201,15110,54A Ave,V3S5X7,6045911128,20,NTC,334290,-122.8027089,49.10151119
A C R Systems Inc,Mfg. - Electronic Data Logging Equipment,201,15110,54A Ave,V3S5X7,6045911128,20,NTC,334999,-122.8027089,49.10151119
Subway,Restaurant - Subway Sandwich Shop,163,10070,152 St,V3R8X8,6049519629,10,GTC,722110,-122.8005953,49.18541427
General Paint Ltd (152A St),Retail Paint & Wallpaper,100,8888,152A St,V3R4E4,6045896022,7,FTC,444120,-122.7994144,49.16418147
Bank of Nova Scotia (152A Steet),Banking,180,8888,152A St,V3R0V7,6046683000,16,FTC,522111,-122.7994144,49.16418147
Nu Glass Projects Ltd,Glazing Cont.,7,19089,94 Ave,V4N3S4,6048881331,16,GTC,444120,-122.6936235,49.17355569
Nu Brite Industries Inc,Auto Wheel Repair & Metal Polishing,3,9535,190 St,V4N3S1,6048883630,18,GTC,332999,-122.6963674,49.17589233
Blueridge Engineering Ltd,Professional Practitioner-Engineer,209,17660,65A Ave,V3S5N4,6045381223,8,CTC,541330,-122.7334329,49.12101769
Alliance Principle Ingredients Corporation,Wholesale - Pharmaceutical Goods,101,5712,192 St,V3S2V7,6045761130,7,CTC,418990,-122.6908721,49.10655777
Oriental Buffet Restaurant,Dining Lounge,0,15140,101 Ave,V3R7V4,6045838893,20,GTC,722110,-122.8021554,49.18595326
Park Dental Group,Dental Office,0,19565,Fraser Hwy,V3S6K7,6045305353,4,CTC,621210,-122.6808396,49.11459777
G W Leasing Inc,Warehouse - Communication Equipment,101,19005,94 Ave,V4N3S4,6048882500,3,GTC,493190,-122.6956034,49.17355311
Trio Machinery Inc,Wholesale - Fish Processing Equipment,101,19005,94 Ave,V4N3S4,6048882500,1,GTC,417230,-122.6956034,49.17355311
Metro Mobile Radio Sales Inc,Wholesale - Communications,101,19005,94 Ave,V4N3S4,6048885100,12,GTC,417320,-122.6956034,49.17355311
Eurospec Autobody 2001 Ltd,Auto Body Shop,42038,13136,84 Ave,V3W1J1,6045919744,3,NTC,811121,-122.8586539,49.15520396
Fleetwood Physiotherapist Corporation,Professional Practitioner-Medical/Physiotherapy,100,15129,100 Ave,V3R9P4,6045815236,4,GTC,621340,-122.8027076,49.18441016
E Sands & Associates Inc,Trustee In Bankruptcy & Bankruptcy Services,203,10366,136A St,V3T5R3,6045835499,40,SCC,541619,-122.8430997,49.19098569
Stoney Cedar Ltd,Retail & Whlse. Roofing Supplies,0,19564,60 Ave,V3S3S7,6045346331,3,CTC,444130,-122.680821,49.11105722
Transwest Roofing Ltd,Contractor - Roofing/Sheetmetal,0,13415,Comber Way,V3W5V8,6045967448,35,NTC,232330,-122.8510732,49.13430712
Cost Plus Painting & Decorating Inc (162 St),Painting Cont.,110,8484,162 St,V4N1B4,6045975218,10,FTC,232450,-122.7730625,49.15708695
McCann Equipment Ltd,Tool Rentals & Repairs,1,7533,135 St,V3W0N6,6045964077,4,NTC,811490,-122.8486103,49.13969941
Newmac Animal Feeds Ltd,Retail Pet Foods & Live Stock Feeds,5,17967,56 Ave,V3S1E2,6045762848,7,CTC,453910,-122.7250269,49.10433763
National Money Mart,Cheque Cashing Convenience Store,0,12788,96 Ave,V3V7H7,6049305905,4,WTC,522390,-122.8686014,49.17702497
I C C Integrated Construction Concepts Ltd,General Cont.,310,12960,84 Ave,V3W1K7,6045990706,10,NTC,231230,-122.8640189,49.1551914
United Oil Services,"Underground Abandoned Fuel, Oil Tank Disposal & Dust Spraying Cont.",0,13181,116 Ave,V3R2S8,6045802132,2,WTC,232990,-122.856851,49.2136324
Coast Capital Savings Credit Union,Financial Services,103,1797,152 St,V4A4N3,6045177000,16,SSTC,522130,-122.8014649,49.03448175
W H Tarpmaster Manufacturing Ltd,Mfg. - Tarpaulins,403,9775,188 St,V4N3N2,6048881649,3,GTC,326198,-122.7015205,49.18021661
Sawbuck's Pub,Neighbourhood Pub,0,1626,152 St,V4A4N2,6045366420,25,SSTC,722410,-122.8010375,49.03159964
Precision Gutters Ltd,"Gutters & Sheet Metal Fabrication, Contractor - Construction/Gutters",7,9515,190 St,V4N3S1,6048885112,40,GTC,232330,-122.69636,49.17544397
Fast Track Floors Ltd,Commercial Flooring Inst.,23,19257,Enterprise Way,V3S6J8,6045333278,33,CTC,232430,-122.6896507,49.10795711
Wal Mart Canada Inc,"Department Store & Auto Repair,Vending Machine",0,1000,Guildford Town Centre,V3R7C3,6045811932,375,GTC,452110,-122.80271,49.192497
Wal Mart Canada Inc,"Department Store & Auto Repair,Vending Machine",0,1000,Guildford Town Centre,V3R7C3,6045811932,375,GTC,811111,-122.80271,49.192497
Diamond Carpet Centre Ltd,Whlse. Carpets,102,7750,128 St,V3W0R6,6045991694,5,NTC,414320,-122.8676534,49.14358109
Pick N Pull,"Auto Wrecking, Retail Used Auto Parts",0,10731,Scott Rd,V3V4G5,6045805479,17,WTC,415310,-122.8847383,49.19766841
Pick N Pull,"Auto Wrecking, Retail Used Auto Parts",0,10731,Scott Rd,V3V4G5,6045805479,17,WTC,418110,-122.8847383,49.19766841
Pacific Group,"Custom Broker for Air, Ocean, Truck Freight & Wharf Housing",101,17637,1 Ave,V3S9S1,6045381566,100,SSTC,488519,-122.7338262,49.00414157
Shield Metal Manufacturing Ltd,Mfg. - Stainless Steel Elbows,0,12694,82 Ave,V3W3G1,6045947571,6,NTC,332999,-122.8711352,49.15171635
Ranger Wheel Chairs,Mfg. - Wheelchairs & Scooters,16,14722,64 Ave,V3S1X7,6045904310,8,NTC,333299,-122.8146232,49.11893399
Northview Golf & Country Club Ltd,"Golf Course, Pro Shop, Restaurant",0,6857,168 St,V3S8E7,6045740324,200,CTC,451110,-122.7582261,49.12596694
Northview Golf & Country Club Ltd,"Golf Course, Pro Shop, Restaurant",0,6857,168 St,V3S8E7,6045740324,200,CTC,713910,-122.7582261,49.12596694
Northview Golf & Country Club Ltd,"Golf Course, Pro Shop, Restaurant",0,6857,168 St,V3S8E7,6045740324,200,CTC,722110,-122.7582261,49.12596694
Shoppers Drug Mart #2224,Retail Merchant - Drug Store,0,14867,108 Ave,V3R1W2,6045848393,14,GTC,446110,-122.8093957,49.19944457
Elisabeth's Chalet Restaurant Ltd,Dining Lounge,0,17785,No 10 (56 Ave) Hwy,V3S1E2,6045741474,12,CTC,722110,-122.7298666,49.1042963
Surrey Paediatric Associates,Pediatricians,103,13710,94A Ave,V3V1N1,6045837070,8,WTC,621110,-122.842893,49.17453131
M J Drapery & Blinds Ltd,"Draperies & Blinds,Clothing",18,6828,128 St,V3W4C9,6045908191,3,NTC,314120,-122.8675312,49.12696263
M J Drapery & Blinds Ltd,"Draperies & Blinds,Clothing",18,6828,128 St,V3W4C9,6045908191,3,NTC,442291,-122.8675312,49.12696263
K & T Leadweld Co Ltd,Lead Burning Cont.,8,12318,84 Ave,V3W3G8,6045943022,2,NTC,232990,-122.8815201,49.1556267
Mid Western Body Shop Ltd,"Auto Body Repair,Automobile Dealer",0,17511,56A Ave,V3S1G2,6045747322,8,CTC,811121,-122.7375985,49.10517507
Great Gyros & Pizza Ltd,"Mfg. - Food Products,Light Wrought Iron Welding",8,13140,88 Ave,V3W3K3,6045944970,3,NTC,311990,-122.8588701,49.16247377
Denroche & Co,Financial Consultants,310,15252,32 Ave,V3S0R7,6045381723,4,SSTC,523930,-122.7984696,49.06101028
Canadian Circuits Inc,Circuit Boards,10,13140,88 Ave,V3W3K3,6045998600,20,NTC,334410,-122.8588701,49.16247377
Canadian Circuits Inc,Circuit Boards,10,13140,88 Ave,V3W3K3,6045998600,20,NTC,334999,-122.8588701,49.16247377
Arnold & Sons Roofing Ltd,Roofing & Gutter Installation Contractor,112,13302,76 Ave,V3W2W1,6045990821,12,NTC,232330,-122.8542721,49.14074119
Martlen Furniture Products,Mfg. - Millwork,207,14770,64 Ave,V3S1X7,6045724772,3,NTC,321919,-122.8132993,49.11895438
Labour Ready Temporary Services Ltd,Temporary Service (Labour Personnel),0,10344,East Whalley Ring Rd,V3T4H4,6049516337,3,SCC,561310,-122.848899,49.191464
Brandt Tractor Ltd,Equipment Dealer,0,9500,190 St,V4N3S2,6048828888,56,GTC,417990,-122.6957415,49.17472702
Prospera Credit Union,Credit Union,0,13747,104 Ave,V3T1W6,6045880111,20,SCC,522130,-122.8415567,49.19179461
Midwest Equipment,Used Truck & Equipment Dealer,0,12123,103A Ave,V3V3G7,6045809662,2,WTC,417910,-122.8862765,49.19076677
Midwest Equipment,Used Truck & Equipment Dealer,0,12123,103A Ave,V3V3G7,6045809662,2,WTC,441120,-122.8862765,49.19076677
Can Four Industrial Supplies Ltd,Lubricants,207,8322,130 St,V3W8J9,6045027222,3,NTC,419199,-122.8620364,49.15374911
Dental Clinic Dr D Zygmunt Inc,Professional Practitioner-Dentist,0,10385,150 St,V3R4B1,6045838885,8,GTC,621210,-122.8066288,49.19084339
Great Urban Pet Escapes Inc,Dog Boarding & Training,0,18030,32 Ave,V3S0L5,6045414138,6,SSTC,812910,-122.7237522,49.05962642
Creative Insignia Ltd,"Whlse. Promotional Products T-Shirts, Caps, Mugs etc.",1,12312,82A Ave,V3W0T7,6045902800,4,NTC,414110,-122.8813538,49.15303894
Manuel Fernandes Ltd,Retail Clothing,0,10331,150 St,V3R4B1,6045846055,3,GTC,448110,-122.8067136,49.19026874
Cruise Vacations Of Surrey,Travel Agency,202,6846,King George Hwy,V3W4Z9,6045943402,1,NTC,561510,-122.8445297,49.12715611
Lark Properties Ltd,Land Development,0,17802,66 Ave,V3S7X1,6045762935,2,CTC,231110,-122.7289638,49.12218716
Lark Properties Ltd,Land Development,0,17802,66 Ave,V3S7X1,6045762935,2,CTC,531120,-122.7289638,49.12218716
Patton & Cooke Ltd,Mfg. - High Voltage Equip.,100,7795,128 St,V3W4E6,6045915374,26,NTC,335311,-122.8681591,49.14434394
Bank of Montreal (10155 King George Hwy),Banking,0,10155,King George Hwy,V3T5H9,6046681180,8,SCC,522111,-122.8457626,49.18701062
Buy Low Foods Ltd,Retail Merchant - Grocery Store,0,14865,108 Ave,V3R1W2,6045842616,36,GTC,445110,-122.809511,49.19944197
Bank of Montreal (176A St),Banking,0,5711,176A St,V3S6S6,6045744152,30,CTC,522111,-122.7339115,49.10631534
Wendy's Old Fashioned Hamburgers,Restaurant,0,9412,120 St,V3V4B9,6045817744,34,WTC,722110,-122.8899128,49.1740025
Public Storage,Storage Space Rentals,0,8654,120 St,V3W3N6,6045902111,2,NTC,493190,-122.8900703,49.16063799
The Source,Retail Merchant - Electronics,129,1711,152 St,V4A4N3,6045319323,2,SSTC,443110,-122.801669,49.0331143
Orangeville Raceway Ltd,Vending Machine,0,17755,60 Ave,V3S1V3,6045769141,300,CTC,713210,-122.7296331,49.11171557
Orangeville Raceway Ltd,Vending Machine,0,17755,60 Ave,V3S1V3,6045769141,300,CTC,722110,-122.7296331,49.11171557
Orangeville Raceway Ltd,Vending Machine,0,17755,60 Ave,V3S1V3,6045769141,300,CTC,722210,-122.7296331,49.11171557
Orangeville Raceway Ltd,Vending Machine,0,17755,60 Ave,V3S1V3,6045769141,300,CTC,722410,-122.7296331,49.11171557
Bank of Montreal (Guildford Town Centre),Banking,0,1883,Guildford Town Centre,V3R7B8,6046681589,20,GTC,522111,-122.80271,49.192497
Cloverdale Curling Club,Lounge,0,6150,176 St,V3S4E7,6045744483,3,CTC,722410,-122.848899,49.191464
Burnaby Lake Greenhouses Ltd,Nursery,0,17250,80 Ave,V4N3G4,6045762088,250,CTC,111421,-122.7454333,49.1479615
Burnaby Lake Greenhouses Ltd,Nursery,0,17250,80 Ave,V4N3G4,6045762088,250,CTC,111422,-122.7454333,49.1479615
Imperial Place Residence Inc,Apartment Rentals,0,13853,102 Ave,V3T5P6,6045871555,30,SCC,531111,-122.8383286,49.18792654
Public Storage,Mini Warehouse Storage,0,12529,80 Ave,V3W3A4,6045943899,2,NTC,493190,-122.8753529,49.14846859
Bayview Auto Towing 2000 Ltd,Towing - Storage,201,155,176 St,V3S9S4,6045382032,19,SSTC,488410,-122.7357206,49.00478209
Kwantlen Park Manor,Apartment Rentals,0,12975,106 Ave,V3T2C1,6046623102,1,SCC,531111,-122.8629269,49.19548303
Nor Van Cable & Marine Supplies,Whlse. Wire Rope for Forest/Marine Industries,0,19355,Enterprise Way,V3S6J8,6045337884,2,CTC,416210,-122.6867859,49.10943123
Nor Van Cable & Marine Supplies,Whlse. Wire Rope for Forest/Marine Industries,0,19355,Enterprise Way,V3S6J8,6045337884,2,CTC,419199,-122.6867859,49.10943123
Talvan Machine Shop Ltd,Machine Shop,308,13395,76 Ave,V3W6K2,6045941141,10,NTC,332710,-122.8517127,49.14104962
Fuller Metric Parts Ltd,Wholesale - Fasteners,0,9652,188 St,V4N3M2,6048829202,27,GTC,332619,-122.7010538,49.17798416
Fuller Metric Parts Ltd,Wholesale - Fasteners,0,9652,188 St,V4N3M2,6048829202,27,GTC,417230,-122.7010538,49.17798416
True Blue Wire Products Inc,"Mfg. - Light Steel & Wire Products for Industrial, Commercial & Horticultural, Contractor - Installation of Wire Products",0,3072,192 St,V3S9V2,6045411176,30,SSTC,332619,-122.6912383,49.0584829
True Blue Wire Products Inc,"Mfg. - Light Steel & Wire Products for Industrial, Commercial & Horticultural, Contractor - Installation of Wire Products",0,3072,192 St,V3S9V2,6045411176,30,SSTC,416330,-122.6912383,49.0584829
Northcoast Building Products Ltd,Whlse. Lumber,0,14682,66 Ave,V3S1Z9,6045978884,35,NTC,416320,-122.8153946,49.12260022
Enterprise Rent A Car Canada Limited,Automobile Rentals,0,13467,72 Ave,V3W2N7,6045962299,4,NTC,532190,-122.849302,49.13377454
C Shawcross & Associates Inc,Professional Practitioner-Accountant,0,17963,67 Ave,V4N1B2,6045980408,6,FTC,541212,-122.7247014,49.12427383
C Shawcross & Associates Inc,Professional Practitioner-Accountant,0,17963,67 Ave,V4N1B2,6045980408,6,FTC,541619,-122.7247014,49.12427383
Cloverdale Antiques & Fine Art,Antique Dealer,0,5754,176 St,V3S4C8,6045741111,1,CTC,453310,-122.7347783,49.10692849
Achilles Foot Health Centre,Podiatrist,102,10190,152A St,V3R1J7,6045895234,3,GTC,621110,-122.7992727,49.18772159
Dendoff Springs Ltd (12045 Old Yale Rd),Mfg. - Industrial & Automotive Springs,0,12045,Old Yale Rd,V3V3X4,6045803400,16,WTC,332619,-122.8884244,49.20235254
Tim Platinum Jewellers,Retail Merchant - 0 to 2 Employees,0,12883,16 Ave,V4A1N5,6045384438,2,SSTC,448310,-122.8654288,49.03144193
The Body Shop,Retail Sales,114,1711,152 St,V4A4N3,6045418903,4,SSTC,446120,-122.801669,49.0331143
City Centre Dental Clinic,Professional Practitioner-Dentist,102,10252,135 St,V3T4C2,6049301314,11,SCC,621210,-122.848899,49.191464
Slip Tube Enterprises Ltd,Mfg - Greenhouses,5,11502,132A St,V3R7S2,6045802177,7,WTC,326198,-122.8548359,49.21152629
Tenold Transportation LP,Trucking & Cartage,0,19470,94 Ave,V4N4E5,6048887822,31,GTC,484120,-122.6831283,49.17348382
Bank of Nova Scotia - Independent Business Centre,Banking,200,13401,108 Ave,V3T5T3,6045861300,18,SCC,522111,-122.8502549,49.1990937
Westminster Lift Truck & Services Ltd,"Forklift Repair, Petroleum Products Distributor",0,12925,116 Ave,V3R2S5,6045802611,25,WTC,532490,-122.8639051,49.21364703
Westminster Lift Truck & Services Ltd,"Forklift Repair, Petroleum Products Distributor",0,12925,116 Ave,V3R2S5,6045802611,25,WTC,811310,-122.8639051,49.21364703
Copytek Duplication & Graphics Ltd,Computer Graphics,111,12414,82 Ave,V3W3E9,6045968181,5,NTC,541430,-122.8785309,49.15186633
Halkin Tool Ltd (66 Ave),Mfg. - Industrial Equip.,0,17819,66 Ave,V3S7X1,6045749799,60,CTC,333519,-122.7288055,49.12251818
K N W Diesel Inc,Diesel Engine Repair,0,19325,94 Ave,V4N4E6,6048883440,9,GTC,811111,-122.6870856,49.17371169
C W L Auto Lease Inc,Auto Sales,1,3033,King George Blvd,V4P1B6,6043283101,3,SSTC,441120,-122.8081268,49.0568465
C W L Auto Lease Inc,Auto Sales,1,3033,King George Blvd,V4P1B6,6043283101,3,SSTC,441310,-122.8081268,49.0568465
Coast Wholesale Appliances LP,Warehouse - Appliances,0,19495,56 Ave,V3S6K3,6045301155,13,CTC,493190,-122.6827638,49.10461714
Lynum Progressive Industries,Mfg. Agent - Ind. Machinery,17,8456,129A St,V3W1A2,6045940100,10,NTC,419199,-122.8637021,49.15622135
Universal TV Service Centre Ltd,Electronic Repair Service,102,19232,Enterprise Way,V3S6J9,6045761200,11,CTC,811210,-122.6906012,49.10762933
Andy Lal's Auto Body & Painting Ltd,Auto Body Repair & Painting,0,10743,124 St,V3V4T5,6045800100,2,WTC,811121,-122.8789299,49.19796522
PriceSmart Foods #2218,Retail Groceries,0,9014,152 St,V3R4E7,6049301133,170,FTC,445120,-122.7995303,49.16718423
Coast Capital Savings Credit Union,Credit Union,100,6350,120 St,V3X3K1,6042315453,25,NTC,522130,-122.8900634,49.11815677
Joseph S Chow Ltd,Trucking Serv.,3,9520,195 St,V4N4G2,6048882286,5,GTC,484120,-122.6821178,49.17538773
P S I Pipeline Supply International Inc,"Warehouse - Water Meters, Valves, Etc.,Home Warranty Program",5,12357,82A Ave,V3W0L5,6045962180,5,NTC,493190,-122.8803778,49.15332995
Whitemud Ironworks (B C) Ltd,Steel Fabricator,0,19469,92 Ave,V4N4G6,6048880242,30,GTC,332319,-122.6831316,49.17030301
Panorama Coin Laundry,Coin Laundry,20,6828,128 St,V3W4C9,6045908194,3,NTC,812310,-122.8675312,49.12696263
Dr Ruby Chan Inc,Professional Practitioner-Medical,211,1676,Martin Dr,V4A6E7,6045317707,2,SSTC,621110,-122.8050671,49.0323296
McDonald's,Restaurant,0,17960,No 10 (56 Ave) Hwy,V3S1C7,6045751690,90,CTC,722110,-122.7252425,49.10399281
McDonald's (Fraser Hwy),Restaurant,0,15574,Fraser Hwy,V3S2V9,6045077900,110,FTC,722110,-122.7913367,49.16195612
McDonald's (10240 King George Hwy),Restaurant,0,10240,King George Hwy,V3T2W5,6045877015,92,SCC,722110,-122.8450797,49.18861735
McDonald's (96 Ave),Restaurant,0,12930,96 Ave,V3V6A8,6045873390,77,WTC,722110,-122.8646301,49.17695672
McDonald's (Guildford Town Centre),Restaurant,0,1000,Guildford Town Centre,V3R7C3,6049300939,77,GTC,722110,-122.80271,49.192497
Purolator Inc,Retail Sales - Packaging,105,12020,Nordel Way,V3W1P6,6045861025,2,NTC,492110,-122.8895749,49.16161786
Vancouver City Savings Credit Union (King George Hwy),Banking,0,10293,King George Hwy,V3T2W6,6048777323,14,SCC,522130,-122.8457272,49.18973484
Atlas Machines Ltd,Mfg. - Machine Shop,303,5327,192 St,V3S8E5,6045749577,3,CTC,332999,-122.6915366,49.09937926
Atlas Machines Ltd,Mfg. - Machine Shop,303,5327,192 St,V3S8E5,6045749577,3,CTC,333519,-122.6915366,49.09937926
White & Peters Ltd,Whlse. Auto Refinishing Products,16,19335,Langley Bypass,V3S6K1,6045309725,4,CTC,415290,-122.683812,49.106731
Singer Valve Inc,Mfg. - Water Control Valve,0,12850,87 Ave,V3W3H9,6045945404,50,NTC,334512,-122.8666229,49.16055454
Surrey Drapery & Blinds Ltd,Mfg. - Drapery & Window Treatments,9,12988,84 Ave,V3W0K6,6045977222,8,NTC,314120,-122.8629833,49.15519493
Surrey Drapery & Blinds Ltd,Mfg. - Drapery & Window Treatments,9,12988,84 Ave,V3W0K6,6045977222,8,NTC,442291,-122.8629833,49.15519493
International House of Pancakes (120 St),Restaurant,0,8170,120 St,V3W3N3,6045964994,40,NTC,722110,-122.8900736,49.15202276
Dhaliwal Cedar Ltd (66 Ave),Mfg. - Lumber & Shingles,0,14630,66 Ave,V3S1Z9,6045998270,1,NTC,321111,-122.8169372,49.12258009
Dhaliwal Cedar Ltd (66 Ave),Mfg. - Lumber & Shingles,0,14630,66 Ave,V3S1Z9,6045998270,1,NTC,321112,-122.8169372,49.12258009
Ocean Park Veterinary Clinic,Professional Practitioner-Veterinarian,0,1597,128 St,V4A3V1,6045368454,5,SSTC,541940,-122.8677831,49.03111058
R F Binnie & Associates Ltd,"Consulting Civil Engineers,Professional Practicitioner - Engineering",101,19232,Enterprise Way,V3S6J9,6045743336,18,CTC,541330,-122.6906012,49.10762933
White Rock Glass Ltd,Retail & Install. Glass & Mirrors,0,2546,King George Hwy,V4P1H5,6045358852,6,SSTC,444190,-122.796775,49.04859443
White Rock Glass Ltd,Retail & Install. Glass & Mirrors,0,2546,King George Hwy,V4P1H5,6045358852,6,SSTC,811122,-122.796775,49.04859443
Everwood Trading Ltd,Wholesale - Fence Posts,402,19292,60 Ave,V3S3M2,6045743838,1,CTC,444190,-122.6893519,49.11114739
Dales Alignment & Brake Service Ltd,Auto Repair,108,19415,56 Ave,V3S6K2,6045309160,9,CTC,811111,-122.6852154,49.10463067
Coast Capital Savings Credit Union,Banking,102,9014,152 St,V3R4E7,6045810811,21,FTC,522130,-122.7995303,49.16718423
Doug Vince & Associates,Computer Software Development & CGA,102,8484,162 St,V4N1B4,6045994660,1,FTC,541510,-122.7730625,49.15708695
Boundary Park Plaza Dental,Dental Office,121,6350,120 St,V3X3K1,6045978808,9,NTC,621210,-122.8900634,49.11815677
K M Roberts & Associates Ltd,Warehouse,20,18812,96 Ave,V4N3R1,6048828488,9,GTC,493190,-122.7008886,49.17684416
Fraser Heights Pharmacy Ltd,Retail - Pharmacy,102,16033,108 Ave,V4N1P2,6049309544,4,GTC,446110,-122.7777544,49.1989669
Interlox Building Systems Ltd,Whlse. - Pre-Engineered Buildings,0,10384,Scott Rd,V3V4G2,6045886541,2,WTC,444190,-122.848899,49.191464
B C Greenhouse Builders Ltd,Mfg. - Glass Enclosures,0,19327,94 Ave,V4N4E6,6048828442,20,GTC,332321,-122.6868901,49.17371296
Qualico Developments Vancouver Inc,General Cont.,201,10331,150 St,V3R4B1,7785712111,50,GTC,231230,-122.8067136,49.19026874
Go Auto Surrey Chrysler Dodge Jeep Ram Ltd,Auto Repair,0,6280,120 St,V3X1Y7,6045942277,80,NTC,441110,-122.8901498,49.11704861
Go Auto Surrey Chrysler Dodge Jeep Ram Ltd,Auto Repair,0,6280,120 St,V3X1Y7,6045942277,80,NTC,441120,-122.8901498,49.11704861
Go Auto Surrey Chrysler Dodge Jeep Ram Ltd,Auto Repair,0,6280,120 St,V3X1Y7,6045942277,80,NTC,811121,-122.8901498,49.11704861
Gridcom Enterprises Ltd,Mining Resistors Repair,0,19323,94 Ave,V4N4E6,6048881532,1,GTC,811490,-122.6872937,49.17372341
Somerset Medical,"Medical Office, Professional Practitioner",4,13791,72 Ave,V3W9Y9,6045919404,7,NTC,621110,-122.8390605,49.13426937
V F B Acoustics Ltd,"Ceiling Cont. & Sales,Wholesale,Tel, Data, Fibre Sound",4,19522,96 Ave,V4N4C3,6048822001,2,GTC,232990,-122.6819514,49.17680557
John L Randall,Law Office,105,17760,No 10 (56 Ave) Hwy,V3S1C7,6045763889,2,CTC,541110,-122.7308685,49.10268352
Mr Lube,Automotive Service,0,7030,King George Blvd,V3W4Z9,6045993557,11,NTC,811111,-122.8452506,49.13027203
White Spot Restaurant (10181 - 152 St),Restaurant,0,10181,152 St,V3R4G6,6045852223,52,GTC,722110,-122.8013123,49.18706468
#1 Sub Garden Ltd,Restaurant - Deli Take Out,0,13482,72 Ave,V3W2N8,6045729311,2,NTC,722110,-122.8488939,49.13339404
Crocker Equipment Co Ltd,Equipment Sales,1,19089,94 Ave,V4N3S4,6048883539,6,GTC,417230,-122.6936235,49.17355569
McNamara Dr Anne E,Professional Practitioner-Medical,201,13798,94A Ave,V3V1N1,6045816727,5,WTC,621110,-122.8405397,49.17452324
Red Robin Gourmet Burgers,Restaurant,0,10237,152 St,V3R4G6,6049302415,115,GTC,722110,-122.801301,49.1884148
Wesco Distribution Canada Inc,Electrical Distributor,201,12844,Anvil (78 Ave) Way,V3W8E7,6045991100,4,NTC,417320,-122.8664548,49.1446291
Quad Lock Building Systems Ltd,Whlse. Building Products & Mfg. Concrete Formwork,0,7398,132 St,V3W4M7,6045903111,4,NTC,321999,-122.8564551,49.13751614
Quad Lock Building Systems Ltd,Whlse. Building Products & Mfg. Concrete Formwork,0,7398,132 St,V3W4M7,6045903111,4,NTC,416320,-122.8564551,49.13751614
C S Q Environmental Technologies Ltd,Environmental Consulting,202,5752,176 St,V3S4C8,6045743100,2,CTC,541690,-122.7347783,49.10692849
Lordco Auto Parts Ltd,Auto Parts,0,2546,King George Hwy,V4P1H5,6045318877,17,SSTC,441310,-122.796775,49.04859443
Budget Kitchen Cabinets Ltd,Manufacturer - Cabinets,0,13140,88 Ave,V3W3K3,6045915586,4,NTC,337110,-122.8588701,49.16247377
Hydraulic Supply,"Whlse. Hydraulic Hose, Couplings",180,19358,96 Ave,V4N4C1,6048823122,3,GTC,417990,-122.686029,49.17678045
Marcels Equipment Ltd,Warehouse - Parts & Equipment,0,19067,94 Ave,V4N3S4,6048825051,20,GTC,493190,-122.6942879,49.17355251
Mag Auto & Industrial Supplies Ltd,Wholesale - Auto Parts,0,13177,76 Ave,V3W2V7,6045437433,11,NTC,415290,-122.8581565,49.14119906
Surrey Cruise & Travel Ltd,Travel Agency,0,7174,120 St,V3W3M8,6045919800,1,NTC,561510,-122.890039,49.13349021
St Michael Honey Ltd,Mfg. - Honey,309,7889,132 St,V3W4N2,6045946833,2,NTC,311990,-122.8570756,49.14629384
Intercontinental Truck Body BC Inc,Mfg. - Truck Body,0,5285,192 St,V3S8E5,6045762971,98,CTC,336211,-122.6914761,49.0988748
Crush Clothing Ltd,Unisex clothing,60,16081,24 Ave,V3S9H7,6045318421,3,SSTC,448199,-122.7766666,49.04634366
McAllister Spring Ltd,"Mfg. - Automotive Leaf Springs, Bolts & Suspension Parts",0,9678,186 St,V4N3N7,6048881486,42,GTC,333299,-122.7073907,49.17833074
Claimspro Inc,Insurance Adjuster,102,15290,103A Ave,V3R7A2,6045891121,4,GTC,524291,-122.7983313,49.19014874
B & B Contracting (2012) Ltd,"Contractor - Sewer & Septic, Contractor - General",0,3077,188 St,V3S9V5,6045397200,230,SSTC,231310,-122.7028758,49.05786182
B & B Contracting (2012) Ltd,"Contractor - Sewer & Septic, Contractor - General",0,3077,188 St,V3S9V5,6045397200,230,SSTC,232110,-122.7028758,49.05786182
B & B Contracting (2012) Ltd,"Contractor - Sewer & Septic, Contractor - General",0,3077,188 St,V3S9V5,6045397200,230,SSTC,232990,-122.7028758,49.05786182
B & B Contracting (2012) Ltd,"Contractor - Sewer & Septic, Contractor - General",0,3077,188 St,V3S9V5,6045397200,230,SSTC,812930,-122.7028758,49.05786182
Bank of Nova Scotia (King George Hwy),Banking,16,3189,King George Hwy,V4P1B8,6045410280,16,SSTC,522111,-122.8116169,49.05963853
Surrey Auto Tec,Automotive Repair,0,14770,64 Ave,V3S1X7,6045965181,2,NTC,811111,-122.8132993,49.11895438
Coast Capital Savings Credit Union,Credit Union,0,12091,72 Ave,V3W2M1,6045177400,14,NTC,522130,-122.8882511,49.13429
Hazelmere Industries Ltd,Mfg. - Wooden Products,2,5422,176 St,V3S4C3,6045747814,7,CTC,321999,-122.734787,49.1009071
King George Mobile Home & R V Park,Mobile Home & RV Park,0,8190,King George Hwy,V3W5B7,6045944713,1,WTC,531190,-122.8453631,49.15128609
King George Mobile Home & R V Park,Mobile Home & RV Park,0,8190,King George Hwy,V3W5B7,6045944713,1,WTC,721211,-122.8453631,49.15128609
National Money Mart,"Cheque Cashing,Post Box Rental Agency",100,13711,72 Ave,V3W2P2,6045012360,8,NTC,522390,-122.8425601,49.13375945
National Money Mart,"Cheque Cashing,Post Box Rental Agency",100,13711,72 Ave,V3W2P2,6045012360,8,NTC,561430,-122.8425601,49.13375945
Merit Kitchens Ltd (86 Ave),Mfg. - Kitchen & Vanity Cabinets,0,12185,86 Ave,V3W3H8,6045913321,80,NTC,337110,-122.884926,49.16021902
Oakcreek Golf & Turf LP,"Whlse., Retail & Repair Golf Carts & Equip.",0,18785,96 Ave,V4N3P5,6048828399,15,GTC,414470,-122.7018303,49.17718871
Oakcreek Golf & Turf LP,"Whlse., Retail & Repair Golf Carts & Equip.",0,18785,96 Ave,V4N3P5,6048828399,15,GTC,811490,-122.7018303,49.17718871
Red Hot Chili Pepper Restaurant,Food Primary-Class B Dining Lounge,0,12790,96 Ave,V3V7H7,6045839987,6,WTC,722110,-122.8684586,49.17702781
Unitow Services Ltd,Auto & Truck Towing,0,13065,76 Ave,V3W2V7,6045921255,57,NTC,488410,-122.8605156,49.14115125
Energizer Canada,Sales Office,1001,7495,132 St,V3W1J8,6045982722,8,NTC,541619,-122.8569749,49.13903649
D J Skinner & Associates Ltd,Warehouse - Security Door Products,103,5433,152 St,V3S5A5,6045994945,5,NTC,493190,-122.8014712,49.1005229
Universal Supply Co Inc,Wholesale - Plumbing & Heating Supplies,0,8371,129 St,V3W0A6,6045434300,26,NTC,416120,-122.8658351,49.15480507
Denning Management Inc,General Cont.,215,12975,84 Ave,V3W1B3,6045724558,25,NTC,231230,-122.8631065,49.15557181
Church's Chicken (120 St),Restaurant,112,8434,120 St,V3W7S2,6045727660,10,NTC,722110,-122.8900795,49.15659098
Metro Systems Ltd,Electric Tools & Equipment Rentals,0,11517,132A St,V3R7S2,6045802433,3,WTC,532490,-122.8552425,49.2118893
Belco Electric Co Ltd,Electrical Contractor,4,19299,94 Ave,V4N4E6,6045139664,7,GTC,232510,-122.6879108,49.1736971
Timberland Motel & Campground,Motel & Campground,0,3418,King George Hwy,V4P1A8,6045311033,2,SSTC,721114,-122.8164744,49.06457535
Timberland Motel & Campground,Motel & Campground,0,3418,King George Hwy,V4P1A8,6045311033,2,SSTC,721211,-122.8164744,49.06457535
Lordco Parts Ltd (72 Ave),Whlse. Auto Parts,0,13355,72 Ave,V3W2N5,6045432811,27,NTC,415290,-122.8530907,49.13374504
First Memorial Funeral Services Fraser Heights Chapel,Funeral Parlour,0,14835,Fraser Hwy,V3R3N6,6045892559,7,FTC,812210,-122.8117078,49.17028506
Smith Plywoods Ltd,Lumber Yard,0,5674,192 St,V3S2V7,6045744393,5,CTC,416320,-122.6908169,49.10609669
Star Rentals,Rentals - Equipment,0,2283,King George Hwy,V4A5A4,6045387888,6,SSTC,532490,-122.7912505,49.04327336
Dobney Foundry Ltd,Mfg. - Municipal Castings,0,13101,78A Ave,V3W9B6,6045967407,3,NTC,331511,-122.859526,49.14579724
Way To Grow Products Inc,Potting Nursery Stock,1,14418,44 Ave,V3S4N7,6045905889,4,SSTC,111421,-122.8229981,49.0817857
Gerry T Smith Holdings Ltd,Whlse. - Fasteners & Air Compressors,205,19425,Langley Bypass,V3S6K1,6045332122,10,CTC,417230,-122.683812,49.106731
Dr Titchener Chiropractic Corporation,Professional Practitioner-Chiropractor,101,15127,100 Ave,V3R0N9,6045894555,3,GTC,621310,-122.8031241,49.18523907
Surrey City Centre Jewellers,Retail Jewelry,0,13530,106 Ave,V3T2C5,6049516818,1,SCC,448310,-122.8471962,49.19512866
Delburn Developments Inc,General Cont.,110,8484,162 St,V4N1B4,6045972992,1,FTC,231230,-122.7730625,49.15708695
Kobelt Manufacturing Co Ltd,Mfg. - Brakes & Steering Controls for Boats,0,8238,129 St,V3W0A6,6045723935,40,NTC,336612,-122.8652536,49.15258895
Westminster Savings Credit Union White Rock Branch,Bank,0,1608,152 St,V4A4N2,6045386944,11,SSTC,522130,-122.8009069,49.03129606
Sentinel Offender Services Ltd,Manufacturer - Elect. Offender Monitors,103,6592,176 St,V3S4G5,6045768658,11,CTC,334290,-122.7346272,49.12212827
Sentinel Offender Services Ltd,Manufacturer - Elect. Offender Monitors,103,6592,176 St,V3S4G5,6045768658,11,CTC,334999,-122.7346272,49.12212827
Semiahmoo House Society,Non Profit - Mentally Handicapped,0,15306,24 Ave,V4A2J1,6045361242,215,SSTC,813990,-122.7981734,49.04544855
Affiliated Custom Brokers Ltd,Brokerage,212,17637,1 Ave,V3S9S1,6045351141,3,SSTC,488519,-122.7338262,49.00414157
H & R Block Cloverdale Satellite Franchise Office,Income Tax Returns Service,0,5643,176 St,V3S4C4,6045743443,2,CTC,541213,-122.7352002,49.10491572
Rich Van Electric Ltd,Contractor - Electrical,2,8333,130 St,V3W7X4,6045990338,8,NTC,232510,-122.8625417,49.15413913
Clover Valley,Wanufacturer - Non Profit,0,17949,Roan Pl,V3S5K1,6045747441,10,CTC,813990,-122.7251098,49.10122655
K F C (Guildford Town Centre),Fast Food Restaurant,0,1329,Guildford Town Centre,V3R7B7,6049517711,9,GTC,722110,-122.80271,49.192497
Impressive Eyewear,Retail Sales - Opticals,0,9965,152 St,V3R4G5,6045836155,2,GTC,446130,-122.801273,49.18376337
Onderwater Land Surveying Ltd,Professional Practitioner - Land Surveying Company,104,5830,176A St,V3S4H5,6045747311,8,CTC,541370,-122.7334768,49.10838289
"Expedia CruiseShipCenters, New Wave",Travel Agency,102,15957,84 Ave,V4N0W7,6045729500,2,FTC,561510,-122.7802443,49.15560921
D S M Excavating & Contracting Ltd,Contractor - Excavating,1,17675,66 Ave,V3S7X1,6043724310,6,CTC,232110,-122.7326442,49.12252372
Ocean Park News,Retail Smoke & Gift Shop,20,12899,16 Ave,V4A1N5,6045319611,1,SSTC,453220,-122.8651721,49.03144286
Ocean Park News,Retail Smoke & Gift Shop,20,12899,16 Ave,V4A1N5,6045319611,1,SSTC,453999,-122.8651721,49.03144286
Peace Arch R V Park,Convenience Store/RV Park & Campground,0,14601,40 Ave,V3S0L2,6045947009,7,SSTC,445120,-122.8161033,49.07486057
Peace Arch R V Park,Convenience Store/RV Park & Campground,0,14601,40 Ave,V3S0L2,6045947009,7,SSTC,721211,-122.8161033,49.07486057
Kam Biotechnology Ltd,Mfg. - Industrial Biochemical Prod.,101,9710,187 St,V4N3N6,6048884336,6,GTC,339990,-122.7046699,49.17909092
Little Caesars (152A St),Restaurant,0,8888,152A St,V3R0V7,6049519100,11,FTC,722110,-122.7994144,49.16418147
Marasa Dr Frank & Dr Ingrid Emanuels Inc,Professional Practitioner-Dentist,0,14821,108 Ave,V3R1W2,6045842535,13,GTC,621210,-122.8115857,49.19944098
Double V Construction,Contractor - General Construction,406,13303,78 Ave,V3W5B9,6045903131,22,NTC,231230,-122.8539139,49.14466728
Bank of Nova Scotia (120 St),Banking,0,7378,120 St,V3W3M9,6045013325,27,NTC,522111,-122.8900266,49.13615259
Pacific Rim Software Ltd,Software Engineer,170,7881,128 St,V3W4E7,6045011088,4,NTC,334999,-122.8682289,49.14614141
Pacific Rim Software Ltd,Software Engineer,170,7881,128 St,V3W4E7,6045011088,4,NTC,541510,-122.8682289,49.14614141
Entre Nous Femmes Housing Society,Townhouse Rental,0,2880,152 St,V4P1G6,6045385545,1,SSTC,531111,-122.8008755,49.05407217
Surrey Inspection & Repair Centre Ltd,Truck Repairs & Inspections,0,10944,124 St,V3V4T9,6045807721,4,WTC,811118,-122.8784237,49.20161774
Gasland Equipment & Fireplaces Inc,"Retail - Gas Fireplaces, BBQ's, Lawn & Garden Equip. & Chainsaw Sales & Serv.",0,2418,King George Hwy,V4P1H5,6045364502,9,SSTC,442298,-122.7936371,49.04611728
Gasland Equipment & Fireplaces Inc,"Retail - Gas Fireplaces, BBQ's, Lawn & Garden Equip. & Chainsaw Sales & Serv.",0,2418,King George Hwy,V4P1H5,6045364502,9,SSTC,444220,-122.7936371,49.04611728
Sidhu Accounting & Tax,Accounting & Tax Serv.,208,7028,120 St,V3W3M8,6045961333,2,NTC,541212,-122.8900449,49.13087217
Kobelt Development Inc,Computer Consulting/Repair/Design,231,18525,53 Ave,V3S7A4,6045747225,5,CTC,334999,-122.7090156,49.09906465
Kobelt Development Inc,Computer Consulting/Repair/Design,231,18525,53 Ave,V3S7A4,6045747225,5,CTC,541510,-122.7090156,49.09906465
Future Shop,Retail Sales - Electronics,3200,10045,King George Hwy,V3T2W2,6045884899,73,SCC,443120,-122.8457649,49.18492089
National Aluminum Ltd,Patio Cover Instal.,41,13320,116 Ave,V3R0R8,6045803535,3,WTC,232990,-122.848899,49.191464
Surrey Fluid Power Ltd,"Pneumatics/Hydraulics Sales, Robotics & Automation",0,13078,84 Ave,V3W1L2,6045943461,13,NTC,417230,-122.8599338,49.15520077
Punjab Driving Schools Inc,Driving School,0,12798,61 Ave,V3X3M6,6045912220,1,NTC,611640,-122.8681788,49.11303815
"Heming, Wyborn & Grewal",Professional Practitioner-Accountant,200,17618,58 Ave,V3S1L3,6045769121,12,CTC,541212,-122.7344944,49.10767158
Fits Right Industries Ltd,Manufacturer - Countertops,6,19272,94 Ave,V4N4E3,6048820080,5,GTC,337110,-122.6884522,49.17343697
Sunnyside Manor,Apartments,0,15340,17 Ave,V4A1T9,6045317470,30,SSTC,531111,-122.7973813,49.03280525
Mark's Work Wearhouse Ltd,Retail Sales - Clothing,0,7908,120 St,V3W3N2,6045901566,14,NTC,448199,-122.8900682,49.1469285
Fastsigns,Mfg. & Design - Signs,0,6902,King George Blvd,V3W4Z9,6045996677,3,NTC,541899,-122.845163,49.12801699
R West & Associates Inc,Trustee In Bankruptcy,202,7134,King George Hwy,V3W5A3,6045917634,4,NTC,541990,-122.8453143,49.13245579
World Wide Custom Brokers Ltd,Customs Broker,221,17637,1 Ave,V3S9S1,6045384763,2,SSTC,488519,-122.7338262,49.00414157
Commercial Truck Equipment Corp,Truck Equipment Sales And Service,0,9475,192 St,V4N3R7,6048880513,25,GTC,415290,-122.6908366,49.17465101
Reflections Truck Body Repair Ltd,Truck Body Shop,0,19045,94 Ave,V4N3S4,6048886912,18,GTC,441120,-122.6949524,49.17354932
Reflections Truck Body Repair Ltd,Truck Body Shop,0,19045,94 Ave,V4N3S4,6048886912,18,GTC,811121,-122.6949524,49.17354932
Somerset Pharmacy Services,Retail Sales - Pharmacy,7,13791,72 Ave,V3W9Y9,6045905587,7,NTC,446110,-122.8390605,49.13426937
Tan Trang Fashions,Retail Clothing,1119,7318,137 St,V3W1A3,6045012209,1,NTC,448199,-122.8425744,49.13559796
Dr Barend Zack Inc,Professional Practitioner-Medical/Opthalmologist,0,13490,104 Ave,V3T1V8,6045856414,4,SCC,621110,-122.8481559,49.19145829
Canadian Dewatering LP,Wholesale - Pumps & Generators,0,19577,94 Ave,V4N4E6,6048880042,46,GTC,417230,-122.6803815,49.17371205
Canadian Dewatering LP,Wholesale - Pumps & Generators,0,19577,94 Ave,V4N4E6,6048880042,46,GTC,532490,-122.6803815,49.17371205
The U P S Store #092,"Retail Sales - Mail Boxes, Supplies",800,15355,24 Ave,V4A2H9,6045350052,3,SSTC,453210,-122.7975044,49.04583671
Masonite International Corporation,Warehouse For Doors,0,9255,194 St,V4N4G1,6048829356,59,GTC,493190,-122.6851988,49.17062836
Rona Revy Inc,Warehouse,0,19550,92 Ave,V4N4G7,6048826200,100,GTC,493190,-122.6807556,49.16999891
Apex Communications Inc (13734 - 104 Ave),"Retail Cellular Phones, Alarm Installation Cont.,Contractor - Alarm Installation",0,13734,104 Ave,V3T1W5,6045833300,30,SCC,443110,-122.8416,49.19142656
Apex Communications Inc (13734 - 104 Ave),"Retail Cellular Phones, Alarm Installation Cont.,Contractor - Alarm Installation",0,13734,104 Ave,V3T1W5,6045833300,30,SCC,561621,-122.8416,49.19142656
Guildford Gift Shop,Retail Sales - Gifts,0,15269,104 Ave,V3R1N5,6045828128,2,GTC,453220,-122.7988466,49.19170882
King George International College,Business School,200,10522,King George Blvd,V3T2X2,6049305161,16,SCC,611410,-122.8450097,49.19378851
C B I Surrey Limited Partnership,Consultant - Health Care,202,7350,King George Hwy,V3W5A5,6045726262,12,NTC,624120,-122.8452357,49.13620325
Nijjar Greenhouses Ltd,Nursery,0,4233,King George Hwy,V3S0L2,6045916238,2,SSTC,111422,-122.8217704,49.07883302
North Delta Paint & Decorating,"Retail Sales - Paint, Wallpaper, Etc.",139,6350,120 St,V3X3K1,6045909590,8,NTC,444120,-122.8900634,49.11815677
Sleeptech Homecare Services Ltd,Therapy For Sleep Disorders,212,5460,152 St,V3S5J9,6045769400,8,NTC,624190,-122.7997339,49.10214832
Sikh Awareness Society,Punjabi Newspaper,0,7743,128 St,V3W4E6,6045906397,7,NTC,511110,-122.8681748,49.14346097
Citiwest Consulting Ltd,Professional Practitioner-Engineer/Civil Engineering,101,9030,King George Hwy,V3V7Y3,6045912213,18,WTC,541330,-122.8453364,49.1667895
First Canadian Messenger Service Inc,Trucking & Cartage,0,13350,Comber Way,V3W5V9,6045903301,7,NTC,492110,-122.8531944,49.13591903
South Seas Ent 2000 Ltd,Wholesale - Frozen Meats,201,7750,128 St,V3W0R6,6045967731,6,NTC,413160,-122.8676534,49.14358109
Gerlak Holdings Ltd,Auto Repair,0,13391,King George Hwy,V3T2T5,6045849151,7,SCC,811111,-122.8509011,49.20293482
Peninsula Runners Co Inc,Retail Clothing & Shoes,0,1708,152 St,V4A4N4,6045317879,1,SSTC,448199,-122.8009557,49.03311881
Peninsula Runners Co Inc,Retail Clothing & Shoes,0,1708,152 St,V4A4N4,6045317879,1,SSTC,448210,-122.8009557,49.03311881
Bricon Kitchens Inc,Mfg. - Kitchen Cabinets,0,13761,116 Ave,V3R0T2,6049301605,3,WTC,337110,-122.840924,49.2137351
Sussex Insurance Agency Newton Inc,Insurance Agency,2,7550,King George Hwy,V3W2T2,6045435159,5,NTC,524210,-122.845258,49.13966312
Fedewich & Witt,Professional Practitioner-Notary,0,5661,176A St,V3S4G8,6045769468,9,CTC,541120,-122.7339023,49.10520204
Pittfield Design Inc,Mfg. - Truck Accessories,10,8116,130 St,V3W8J9,6045990388,4,NTC,336390,-122.8620874,49.15037778
O C Open Connection Ltd,Retail Sales - Cellular Phones,108,7380,King George Blvd,V3W5A5,6045439366,3,NTC,443110,-122.8452107,49.13673593
G Hjukstrom Ltd,Whlse. Automotive Industrial Products,0,19114,95A Ave,V4N4P2,6048828211,20,GTC,418990,-122.6930804,49.17592517
Trail Appliances Ltd,Retail Sales - Appliances,0,6750,King George Hwy,V3W4Z5,6045903377,16,NTC,443110,-122.8451998,49.1253617
Akasaka Japanese Restaurant Surrey Ltd,Dining Lounge,0,15110,101 Ave,V3R7V4,6045881244,9,GTC,722110,-122.8034003,49.18597032
Custom Protect Ear Inc,Mfg. - Custom Hearing Protection,681,7789,134 St,V3W9E9,6045991311,36,NTC,339110,-122.8514667,49.14403212
Dr P S Bhurji Inc,Professional Practitioner-Medical,0,8241,120A St,V3W3P5,6045720055,2,NTC,621110,-122.8887722,49.15294511
Johnston Meier Insurance Agencies Ltd,"Insurance Agency,Retail Sales - Cellular Phones",140,10362,King George Hwy,V3T2W5,6045844456,9,SCC,524210,-122.8450561,49.19096128
Magneto Sales Inc,Wholesale,203,9775,188 St,V4N3N2,6048887240,6,GTC,417230,-122.7015205,49.18021661
Black Bond Books (24 Ave),Warehouse - Books,1,15562,24 Ave,V4A2J5,6045364444,7,SSTC,493190,-122.7913767,49.04542515
Ramada Limited,Hotel,0,19225,No 10 (Langley Bypass) Hwy,V3S8V9,6045768388,20,CTC,721111,-122.683812,49.106731
A & K Diesel Repair Ltd,Truck Repairs,0,17841,64 Ave,V3S1Z3,6045744266,10,CTC,811118,-122.7282077,49.11892776
Custom Building Products of Canada Ltd,Mfg. - Setting Material & Grout,0,12638,82 Ave,V3W3G1,6045911021,18,NTC,327990,-122.8723814,49.15174489
Guildford Physiotherapy & Hand Therapy Clinic,Professional Practitioner-Medical/Physiotherapy,200,15387,104 Ave,V3R1N5,6049517345,15,GTC,621340,-122.7957508,49.19171319
Learning Disabilities Association of BC Fraser South Chapter,Services to Learning Disabled Persons,201,13766,72 Ave,V3W2P4,6045915156,3,NTC,624190,-122.8403842,49.13338307
Yess Products Ltd,Mfg. - Bicycle Frames,13,13478,78 Ave,V3W8J6,6045919377,8,NTC,339920,-122.849141,49.14433962
Tsuyuki Dr Kurt T,Medical Office,0,13490,104 Ave,V3T1V8,6049510076,3,SCC,621110,-122.8481559,49.19145829
Morgan Creek Golf Course,"Golf Course, Restaurant, Pro Shop,Golf Shop",0,3500,Morgan Creek Way,V3S0J7,6045314653,165,SSTC,451110,-122.7819576,49.06494761
Morgan Creek Golf Course,"Golf Course, Restaurant, Pro Shop,Golf Shop",0,3500,Morgan Creek Way,V3S0J7,6045314653,165,SSTC,713910,-122.7819576,49.06494761
Morgan Creek Golf Course,"Golf Course, Restaurant, Pro Shop,Golf Shop",0,3500,Morgan Creek Way,V3S0J7,6045314653,165,SSTC,722110,-122.7819576,49.06494761
Midway Glass & Aluminum Ltd,Glass Glazing Cont.,119,19292,60 Ave,V3S3M2,6045334574,9,CTC,232320,-122.6893519,49.11114739
Midway Glass & Aluminum Ltd,Glass Glazing Cont.,119,19292,60 Ave,V3S3M2,6045334574,9,CTC,232340,-122.6893519,49.11114739
Surrey Orthopaedic & Sports Physiotherapy Clinic,Physiotherapy,307,13798,94A Ave,V3V1N1,6045814922,1,WTC,621340,-122.8405397,49.17452324
On Side Restoration Services Ltd,Restoration,8,12950,80 Ave,V3W3B2,6045010828,45,NTC,231230,-122.8637244,49.14796994
Kohaly Printing & Bindery Ltd,Printing & Bindery,210,12837,76 Ave,V3W2V3,6045942324,5,NTC,323119,-122.8666709,49.141185
Ace Truck & Equipment Repairs Ltd,"Truck & Equipment Repair, Truck Sales",0,19155,96 Ave,V4N3P2,6048881133,11,GTC,415120,-122.6917397,49.17716918
Ace Truck & Equipment Repairs Ltd,"Truck & Equipment Repair, Truck Sales",0,19155,96 Ave,V4N3P2,6048881133,11,GTC,811118,-122.6917397,49.17716918
Peoples  Pharmacy #129,Retail Sales - Drug Store,0,12851,16 Ave,V4A1N5,6045367611,9,,446110,-122.8659375,49.03150405
Northwest sheet,Mfg. - Steel Fabrication for Cranes and Hoists,0,19337,Enterprise Way,V3S6J8,6045300038,40,GTC,332999,-122.6872009,49.10922338
Level4 Technologies Inc,"IT solution provider including assembly, services, warehouse and wholesale of it hardware & equipmen",102,18663,52 Ave,V3S8E5,6045769522,13,CTC,417910,-122.7056088,49.09726187
Vander Brothers Cabinets Ltd,Mfg. - Kitchen Cabinets,14,5652,Landmark Way,V3S7H1,6045346402,3,CTC,337110,-122.6845572,49.10565479
Cloverdale Family Medical Centre,Professional Practitioner-Medica,0,5633,177B St,V3S4H9,6045762828,2,CTC,621110,-122.7305299,49.10471332
Stampede Tack & Western Wear Ltd,Retail Tack & Western Wear,0,17982,56 Ave,V3S1C7,6045747427,8,CTC,448199,-122.7242117,49.10399186
Stampede Tack & Western Wear Ltd,Retail Tack & Western Wear,0,17982,56 Ave,V3S1C7,6045747427,8,CTC,451110,-122.7242117,49.10399186
Coast Capital Savings Credit Union,Financial Services,0,16011,24 Ave,V3S9H7,6045177000,18,SSTC,522130,-122.7784899,49.04583151
Fraser Surrey Docks Ltd Partnership,Deep Sea Port Terminal Operator,0,11060,Elevator Rd,V3V2R7,6045812233,250,WTC,488310,-122.9162696,49.17779541
Jim Pattison Chrysler Jeep Dodge North Surrey,Automotive Sales,0,15377,Guildford Dr,V3R0H9,6045812231,32,GTC,441110,-122.7963392,49.19774735
Jim Pattison Chrysler Jeep Dodge North Surrey,Automotive Sales,0,15377,Guildford Dr,V3R0H9,6045812231,32,GTC,811111,-122.7963392,49.19774735
Jim Pattison Chrysler Jeep Dodge North Surrey,Automotive Sales,0,15377,Guildford Dr,V3R0H9,6045812231,32,GTC,811121,-122.7963392,49.19774735
Jet Bindery Ltd,"Bindery & Mail House,Dispatch office",101,17910,55 Ave,V3S6C8,6045761118,2,CTC,323120,-122.7265931,49.10216273
Khan Inc Dr A M Safiqul,Professional Practitioner-Medical,203,9656,King George Hwy,V3T2V5,6045884858,3,SCC,621110,-122.8452933,49.17806204
Soper's Supply Ltd,Whlse. Electric Motors,9,8285,132 St,V3W4N6,6045901667,5,NTC,417230,-122.8571375,49.15334354
Victory Memorial Park Funeral Centre,Funeral Home,0,14831,28 Ave,V4P1P3,6045366522,8,SSTC,812210,-122.810324,49.05314317
P G Performance Sales & Service,Auto & Part Sales/Repair Serv.,0,10845,148 St,V3R3Y2,6045858558,15,GTC,441120,-122.8127608,49.19945486
P G Performance Sales & Service,Auto & Part Sales/Repair Serv.,0,10845,148 St,V3R3Y2,6045858558,15,GTC,811111,-122.8127608,49.19945486
Vista Green Apartments,Apartment Rentals,0,7575,140 St,V3W5J9,6045836844,1,NTC,531111,-122.8347822,49.14059243
Black Belt Academy,Martial Arts Instruction,0,7135,138 St,V3W7T9,6045905425,6,NTC,611620,-122.8391595,49.13246636
Johnsen Archer Chartered Accountants,Professional Practitioner-Chartered Accountants,300,7485,130 St,V3W1H8,6045012822,40,NTC,541212,-122.8621049,49.13925128
Stator Sales & Service Ltd,Whlse. & Serv. Electric Motors & Pumps,0,19323,94 Ave,V4N4E6,6048828762,7,GTC,417230,-122.6872937,49.17372341
Marr Weld on Hinges Ltd,Whlse. Hinge Hardware,203,14770,64 Ave,V3S1X7,6045940748,2,NTC,416330,-122.8132993,49.11895438
Rimex Supply Ltd (186 St),Whlse. - Rims,0,9726,186 St,V4N3N7,6048880025,31,GTC,415290,-122.7074015,49.17911072
West Coast Growers Co,Nursery,0,1420,172 St,V3S9M6,6045411117,20,SSTC,111421,-122.7421519,49.02738135
Child Evangelism Fellowship Of B C,Educational,204,18515,53 Ave,V4N4A9,6045818242,4,CTC,611690,-122.7092668,49.09915015
Child Evangelism Fellowship Of B C,Educational,204,18515,53 Ave,V4N4A9,6045818242,4,CTC,813990,-122.7092668,49.09915015
Surrey Manufacturing Expertise,Mfg. - Circuit Boards,101,13119,84 Ave,V3W1B3,6045967288,9,NTC,334110,-122.8590252,49.15556559
Surrey Manufacturing Expertise,Mfg. - Circuit Boards,101,13119,84 Ave,V3W1B3,6045967288,9,NTC,334999,-122.8590252,49.15556559
Riverside Insurance Agencies 1984 Ltd,Insurance Brokerage,0,14823,108 Ave,V3R1W2,6045814466,8,GTC,524210,-122.8114321,49.19943785
Rare Manufacturing Inc,Mfg. - Roofing Tiles,0,19154,95A Ave,V4N4P2,6048822888,9,GTC,327120,-122.6917724,49.17592932
Maguire Inc Dr Hugh,Professional Practitioner-Dentist/Endodontics,239,1959,152 St,V4A9E3,6045313631,7,SSTC,621210,-122.8014669,49.03727504
Accubending Inc,Manufacturer - Aluminum & Metal,0,13761,116 Ave,V3R0T2,6045834022,1,WTC,332329,-122.840924,49.2137351
Paul Moon Physiotherapist Corp,Physiotherapy Clinic,0,10275,City Parkway,V3T4C3,6045836088,8,SCC,621340,-122.848712,49.18937766
Subway,Restaurant,2783,10153,King George Hwy,V3T2W1,6049308689,11,SCC,722110,-122.8458478,49.18592247
Global Dec K Ing Systems,Contractor - Vinyl  Decks & Railing,0,5250,185A St,V3S7A4,7785713000,7,CTC,232390,-122.7081568,49.09756051
Running Room,Retail - Running Shoes & Apparel Shop,940,15045,32 Ave,V4P0A2,6045353919,6,SSTC,448210,-122.8055641,49.06028189
Running Room,Retail - Running Shoes & Apparel Shop,940,15045,32 Ave,V4P0A2,6045353919,6,SSTC,451110,-122.8055641,49.06028189
Top King's Chinese Restaurant & Cafe,Coffee Bar,101,10294,135 St,V3T4C2,6049306688,3,SCC,722110,-122.848899,49.191464
Mainland Sand & Gravel ULC,Aggregate Cont.,0,9512,194A St,V4N4G5,6048825650,12,GTC,232220,-122.6841439,49.17539313
Contemporary Aluminum Railings Ltd,Manufacturer - Aluminum Railings,0,18521,97 Ave,V4N3N9,6044550703,17,GTC,332329,-122.7091668,49.17906842
Smith & Asssociates - Barristers & Solicitors,Legal Serv.,9,15243,91 Ave,V3R9K2,6045840007,4,FTC,541110,-122.7998524,49.16845099
Surrey Bike Zone,Retail-Bicycles,102,15420,Fraser Hwy,V3R3P5,6045830969,3,FTC,451110,-122.7955622,49.1635911
Coast Crane Ltd,Machinery Equipment  - Dealer & Rental Office,0,9538,195 St,V4N4G2,6048888474,9,GTC,417230,-122.6820683,49.17579608
Coast Crane Ltd,Machinery Equipment  - Dealer & Rental Office,0,9538,195 St,V4N4G2,6048888474,9,GTC,532490,-122.6820683,49.17579608
Southwest Hearing Clinic Inc,Audiology Clinic,130,13711,72 Ave,V3W2P2,6045919228,2,NTC,621340,-122.8425601,49.13375945
Magnum Marketing Ltd,Whlse. Vehicle Serv Equipment,104,5630,Landmark Way,V3S7H1,6045328082,9,CTC,415290,-122.6845368,49.10520376
R M C Ready Mix Ltd,Head Office,0,19275,54 Ave,V3S8E5,6045741164,27,CTC,327320,-122.6890351,49.10137226
R M C Ready Mix Ltd,Head Office,0,19275,54 Ave,V3S8E5,6045741164,27,CTC,541611,-122.6890351,49.10137226
Envision Financial A Division Of First West Credit Union,Credit Union,100,15355,Fraser Hwy,V3R3P3,6045014280,13,FTC,522130,-122.7972292,49.16472745
Dura Spirol Pipe Inc,Manufacturer - Spiral Pipe Machines,10,19158,94 Ave,V4N4X8,6048883389,1,GTC,332999,-122.6917855,49.17319754
Secret Resto Lounge,Neighbourhood Pub & Restaurant,0,12025,72 Ave,V3W2M1,6045011999,54,NTC,722110,-122.8896971,49.13426727
Secret Resto Lounge,Neighbourhood Pub & Restaurant,0,12025,72 Ave,V3W2M1,6045011999,54,NTC,722410,-122.8896971,49.13426727
A & W Restaurant (72 Ave),Restaurant,0,12133,72 Ave,V3W2M1,6045962224,20,NTC,722110,-122.8867063,49.13426872
Ocean Park Massage Therapy Clinic,Massage Therapist,210,12761,16 Ave,V4A1N2,6045360700,2,SSTC,621370,-122.8684079,49.03146096
Labour Unlimited,Employment Agencies / Temp. Serv.,0,10447,King George Hwy,V3T2W7,6049510007,3,SCC,561310,-122.8456336,49.19250706
Pro Quality Doors & Mouldigs Ltd,Manufacturer - Doors,107,13140,80 Ave,V3W3B2,6045903431,5,NTC,321911,-122.8582451,49.14797572
Litespan Electric Ltd,Contractor - Electrical,104,19232,Enterprise Way,V3S6J9,6045740346,11,CTC,232510,-122.6906012,49.10762933
Fountain Tire White Rock Limited,Tire & Auto Service,0,2546,King George Hwy,V4P1H5,6045353973,9,SSTC,811111,-122.796775,49.04859443
Fountain Tire White Rock Limited,Tire & Auto Service,0,2546,King George Hwy,V4P1H5,6045353973,9,SSTC,811121,-122.796775,49.04859443
Vision West Aluminum Products Ltd,Glazing Contractor,301,19055,54 Ave,V3S4R1,6045742500,15,CTC,232320,-122.6951368,49.10092916
Corwest International Trading Inc,Import & Export,0,19355,Enterprise Way,V3S6J8,6045347700,1,CTC,419199,-122.6867859,49.10943123
Panther Paintball Adventures,Paintball Adventure,0,19022,16 Ave,V3S5J9,6045330890,12,SSTC,713990,-122.6961777,49.03093627
Duffin Martin Tax & Accounting,Tax & Accounting Services,0,15685,108 Ave,V4N1J9,6045833944,4,GTC,541215,-122.787535,49.19898768
Tim Hortons Donuts (9595 King George Hwy),Retail Donuts,0,9595,King George Hwy,V3V5W4,6045820909,19,WTC,445291,-122.8462154,49.17662318
Tim Hortons Donuts (9595 King George Hwy),Retail Donuts,0,9595,King George Hwy,V3V5W4,6045820909,19,WTC,722110,-122.8462154,49.17662318
Building Supply Dealers Assn of BC,Dist. of Printed Materials,2,19299,94 Ave,V4N4E6,6045132205,2,GTC,813910,-122.6879108,49.1736971
Pacific Partition Mfg Ltd,Mfg. -  Partitions,6,9670,188 St,V4N3M2,6048823831,6,GTC,332999,-122.7010458,49.17840076
Pacific Partition Mfg Ltd,Mfg. -  Partitions,6,9670,188 St,V4N3M2,6048823831,6,GTC,339990,-122.7010458,49.17840076
Art's Nursery,Nursery,0,8940,192 St,V4N3W8,6048821201,8,GTC,111421,-122.6901705,49.16504255
Emco Ltd,Wholesale - Plumbing & Heating,0,8308,129 St,V3W0A6,6045948311,19,NTC,416120,-122.865217,49.15363463
Chu Lin Farm,Whlse. & Retail Farm Produce,0,17535,40 Ave,V3S0L5,6045740268,7,SSTC,445230,-122.7372131,49.07513999
McDonald's (11011 Scott Rd),Restaurant,0,11011,Scott Rd,V3V8B9,6045804040,80,WTC,722110,-122.8791657,49.20265513
Honeywell Silent Witness Inc,Admin & Sales Office,0,6554,176 St,V3S4G5,6045741526,32,CTC,334999,-122.73463,49.12158828
Honeywell Silent Witness Inc,Admin & Sales Office,0,6554,176 St,V3S4G5,6045741526,32,CTC,541611,-122.73463,49.12158828
Delrios Restaurants Inc,Restaurant & Lounge,0,1669,128 St,V4A3v2,6045362544,33,SSTC,722110,-122.8678008,49.03270556
Mark's Work Wearhouse #250,Clothing,0,2425,160 St,V3S0C8,6045365221,13,SSTC,448199,-122.7795258,49.04638572
Andrew Sheret Ltd,"Whlse. Plumbing, Heating, Air Conditioning & Industrial Supplies",0,19558,56 Ave,V3S6K4,6045347421,39,CTC,416120,-122.6814035,49.10422572
Oregon Canadian Holdings Inc,Engineering,210,19358,96 Ave,V4N4C1,6048882890,4,GTC,541330,-122.686029,49.17678045
Paul  Peel & Associates,Psychologist,2002,7445,132 St,V3W1J8,6045945225,2,NTC,621330,-122.8569802,49.13788696
S A V Plastics Ltd,Plastics Fabrication,7,12125,86 Ave,V3W3H8,6045999334,1,NTC,326198,-122.8867099,49.15976803
Wine Kitz,"Retail-Wine Kits & Supplies, Wine Making",101,2428,King George Hwy,V4P1H5,6045386778,2,SSTC,445310,-122.7937753,49.04623447
Spectral Finishing Inc,"Mfg. - Aluminum Anodizing,Wholesale",103,8310,130 St,V3W8J9,6045727382,21,NTC,332999,-122.8620126,49.15351025
Pick N Pull,Auto Wrecking,0,10701,Scott Rd,V3V4G5,6045808980,3,WTC,415310,-122.8855457,49.19717875
Pick N Pull,Auto Wrecking,0,10701,Scott Rd,V3V4G5,6045808980,3,WTC,418110,-122.8855457,49.19717875
Fine Edge Salon Essentials,"Whlse. Beauty Supplies,Charitable Society/Organization,Warehouse",302,8352,130 St,V3W8J9,6045017756,4,NTC,414520,-122.8620223,49.15417323
J & J Sales Ltd,Wholesale - R V Parts,6,19510,55 Ave,V3S8P7,6045346336,9,CTC,415290,-122.6824606,49.10220438
Remington Park Motors,Auto Repair,10,19080,96 Ave,V4N3R3,6048821986,2,GTC,811111,-122.6944152,49.1768378
Interwest Restaurants,Restaurant Administration,401,7337,137 St,V3W1A4,6045016692,4,NTC,541611,-122.8430688,49.13602195
Reeb Enterprises Ltd,Whlse. Electronics,10,19299,94 Ave,V4N4E6,6048885567,2,GTC,417320,-122.6879108,49.1736971
Coastal Lock & Key,Locksmith,106,7808,132 St,V3W4N1,6045995397,3,NTC,561622,-122.8565127,49.14480224
Epoch Developments Ltd,Land Development & Investments,6,10320,East Whalley Ring Rd,V3T4H4,6042505397,1,SCC,531310,-122.848899,49.191464
Delitalia Fine Foods Inc,Food Primary-Class B Dining Room,0,1629,128 St,V4A3V2,6045359588,3,SSTC,445299,-122.8677382,49.03178116
Delitalia Fine Foods Inc,Food Primary-Class B Dining Room,0,1629,128 St,V4A3V2,6045359588,3,SSTC,722110,-122.8677382,49.03178116
King George Motel Ltd,Motel,0,6542,King George Blvd,V3W4Z3,6045916001,3,NTC,721114,-122.8451071,49.12158708
Newton Rental Centre,Party Serv. & Rentals,3,8285,132 St,V3W4N6,6045961771,12,NTC,812940,-122.8571375,49.15334354
Fountain Tire (104 Ave),Auto Repair,0,13689,104 Ave,V3T1W3,6045883077,6,SCC,811111,-122.8423243,49.19171318
Indo Canadian Times International Inc,Newspaper Publisher,103,12414,82 Ave,V3W3E9,6045995408,10,NTC,511110,-122.8785309,49.15186633
Corvette Specialties Auto Group Inc,Auto Body Repair Service,0,11180,Scott Rd,V3V8B8,6045808388,12,WTC,441120,-122.8738939,49.20529918
Corvette Specialties Auto Group Inc,Auto Body Repair Service,0,11180,Scott Rd,V3V8B8,6045808388,12,WTC,441310,-122.8738939,49.20529918
Corvette Specialties Auto Group Inc,Auto Body Repair Service,0,11180,Scott Rd,V3V8B8,6045808388,12,WTC,811111,-122.8738939,49.20529918
Corvette Specialties Auto Group Inc,Auto Body Repair Service,0,11180,Scott Rd,V3V8B8,6045808388,12,WTC,811121,-122.8738939,49.20529918
Royal Autobody & Sales Ltd,Auto Body/Painting,4,7680,134 St,V3W7T8,6045994515,2,NTC,811111,-122.8509599,49.1422375
Paperchase Graphics Bar Code & Label Systems Inc,Bar Code & Label System Supplier,100,8459,160 St,V4N0V6,6049519400,5,FTC,417910,-122.7790908,49.15657231
I XL Masonry Supplies Ltd,Wholesale - Masonry Products,0,13240,Comber Way,V3W5V9,6045917388,10,NTC,444190,-122.8560478,49.13645643
Discovery Products Ltd,Whlse. Playground Fixtures,0,19154,95A Ave,V4N4P2,6048883712,1,GTC,418990,-122.6917724,49.17592932
Rona Inc (Fraser Hwy),"Building Materials & Garden Center,Vending Machine",0,16659,Fraser Hwy,V4N0E7,6045762955,90,FTC,444110,-122.7604521,49.15033272
Rona Inc (Fraser Hwy),"Building Materials & Garden Center,Vending Machine",0,16659,Fraser Hwy,V4N0E7,6045762955,90,FTC,444220,-122.7604521,49.15033272
Pharmasave No 206,Retail Pharmacy,119,15280,101 Ave,V3R8X7,6045843331,24,GTC,446110,-122.7986031,49.18597274
Wong Inc Dr Glenn K,Dental Office,0,13636,Grosvenor Rd,V3R5C9,6045828888,1,SCC,621210,-122.8444488,49.19936649
Pacbrake Mfg,Mfg. - Engine Retarders & Parts,0,19594,96 Ave,V4N4C3,6048820183,80,GTC,336310,-122.6797992,49.17673855
Midway Mazda,Auto Sales/Serv. & Leasing,6,3050,King George Hwy,V4P1A2,6045385388,20,SSTC,441120,-122.8081022,49.05807362
Midway Mazda,Auto Sales/Serv. & Leasing,6,3050,King George Hwy,V4P1A2,6045385388,20,SSTC,811111,-122.8081022,49.05807362
Hudson Mitchell & Sons Lumber Inc,Lumber Remanufacturing,0,12975,76 Ave,V3W2V3,6045963333,25,NTC,321111,-122.8636826,49.14115614
Ene Inc Dr Dragomir,Professional Practitioner-Dentist,114,1656,Martin Dr,V4A6E7,6045317101,3,SSTC,621210,-122.8050313,49.03206461
A J H Macdonald Limited,Mfg Agent - Hardware,0,2368,Christopherson Rd,V4A3L4,6045419922,2,SSTC,419199,-122.8824797,49.04523279
5 Star Catering Ltd,"Caterer, Liquor Primary - Class A Pub, Restaurant - Lounge, Food primary dining lounge",0,5640,188 St,V3S4N5,6045740411,12,CTC,722320,-122.7013147,49.10544931
5 Star Catering Ltd,"Caterer, Liquor Primary - Class A Pub, Restaurant - Lounge, Food primary dining lounge",0,5640,188 St,V3S4N5,6045740411,12,CTC,722511,-122.7013147,49.10544931
D'Vine Wine,Mfg. - Wine,0,15562,24 Ave,V4A2J5,6045410995,2,SSTC,312130,-122.7913767,49.04542515
Care Point Pharmacy,Pharmacy,0,13640,105A Ave,V3T2B3,6045818700,5,SCC,446110,-122.8443309,49.19428365
Dr Lorne E Albrecht Inc,Professional Practitioner-Medical,603,13737,96 Ave,V3V0C6,6045851110,10,SCC,621110,-122.8427319,49.17719816
Dywidag Systems International Canada Ltd,Whlse. Material Supply,103,19433,96 Ave,V4N4C4,6048888818,21,GTC,418990,-122.6840319,49.17776228
Westran Intermodal Ltd,Warehouse & Transload Facilities,0,10650,Timberland Rd,V3V7Z1,6049305811,26,WTC,493190,-122.8972317,49.19619224
Peace Arch Imports Ltd,"Importer,Forced entry prevention",6,13415,76 Ave,V3W2W2,6045948775,2,NTC,419199,-122.8508187,49.14103281
Knutzen Dr Scott Podiatric Corp,Professional Practitioner-Medical/Podiatrist,204,1656,Martin Dr,V4A6E7,6045362033,3,SSTC,621110,-122.8050313,49.03206461
David Pel & Co Inc,Accounting,310,10524,King George Hwy,V3T2X2,6045851255,9,SCC,541212,-122.845189,49.19375237
Golos Dental Centre Inc,Professional Practioner - Dentist,104,10351,150 St,V3R4B1,6049518001,12,GTC,621210,-122.8067123,49.19062342
