BUSINESS_NAME,PRODUCTS_OR_SERVICES,UNIT,HOUSE_NUMBER,ROAD,POSTAL_CODE,PHONE,EMPLOYEES,TOWN_CENTRE,BUSINESS_LICENCE_APPLICATION_TYPE,YEAR,LONGITUDE,LATITUDE
# 2 Happy Hair Cut Beauty Salon,Hair Salon/Barber,0,13753,72 Ave,V3W2P2,6045977766,1,NTC,Commercial/Industrial,2011,-122.84061,49.13367
#1 Happy Hair,Hairdressing,7,7548,120 St,V3W3N1,6045434057,2,NTC,Commercial/Industrial,2011,-122.89022,49.14015
#1 Impex Canada Ltd,Wholesaler,101,12815,85 Ave,V3W0K8,6045946862,1,NTC,Commercial/Industrial,2011,-122.86755,49.15752
#1 Nails,Esthetician,104,18408,64 Ave,V3S1E9,6045758037,5,CTC,Commercial/Industrial,2011,-122.71224,49.11866
#1 Sub Garden Ltd,Restaurant - Deli Take Out,0,13482,72 Ave,V3W2N8,6045729311,2,NTC,Commercial/Industrial,2011,-122.84829,49.13349
#2 Bear Creek Coin Laundry & Tanning,"Laundromat,Tanning Salon",0,13578,88 Ave,V3W3K8,6045988779,1,NTC,Commercial/Industrial,2011,-122.84641,49.16266
#4 Happy Haircut & Beauty Parlour Ltd,Hairdressing,104,15955,Fraser Hwy,V4N0Y3,6045121749,1,FTC,Commercial/Industrial,2011,-122.78023,49.158
(Crossfit Renegade) Renegade Athletics,Recreational Facility,6,6468,King George Blvd,V3W4Z3,6045847457,1,NTC,Commercial/Industrial,2011,-122.84536,49.12023
0492549 BC Ltd,Equipment Leasing,201,3237,King George Blvd,V4P1B7,6049530909,1,SSTC,Commercial/Industrial,2011,-122.81279,49.06096
0793982 BC Ltd,Financial Planning/Consultant,218,7928,128 St,V3W4E8,6047210065,1,NTC,Commercial/Industrial,2011,-122.86781,49.14655
0802186 BC Ltd,Financial Planning/Consultant,0,7928,128 St,V3W4E8,6045982955,2,NTC,Commercial/Industrial,2011,-122.86781,49.14655
0819155 BC Ltd,Automotive Repair Service,0,12691,King George Blvd,V3V3K7,6048361831,1,WTC,Commercial/Industrial,2011,-122.8703,49.20634
0852483 BC Ltd,Whlse.,208,19049,54 Ave,V3S4R1,6045399969,1,CTC,Commercial/Industrial,2011,-122.69482,49.10087
0894916 B C Ltd,Assembling of residential doors & moulding,204,12779,80 Ave,V3W3A6,6045802114,5,NTC,Commercial/Industrial,2011,-122.86859,49.14826
0900706 BC Ltd,Apartment/Townhouse Rental,0,12730,66 Ave,V3W1P3,6045905920,1,NTC,Commercial/Industrial,2011,-122.86996,49.12278
0914534 B C Ltd,Automotive Repair Service,220,12451,82 Ave,V3W3E8,6047823556,1,NTC,Commercial/Industrial,2011,-122.87724,49.15209
1 800 Got Junk,Junk Removal,201,14640,64 Ave,V3S1X7,6045845861,1,NTC,Commercial/Industrial,2011,-122.81656,49.11904
1 Call Towing Ltd,Towing - No Storage,103,13119,84 Ave,V3W1B3,7789087594,1,NTC,Commercial/Industrial,2011,-122.85909,49.15549
104 Laundry,Laundromat,106,13979,104 Ave,V3T1X1,6047230795,1,SCC,Commercial/Industrial,2011,-122.83477,49.19157
104 Pawn Shop Ltd,Pawn Shop,0,13752,104 Ave,V3T1W5,6045851433,2,SCC,Commercial/Industrial,2011,-122.84109,49.19148
152 Liquor Store,Liquor Store,0,9082,152 St,V3R4E7,6045316953,6,FTC,Commercial/Industrial,2011,-122.80121,49.16781
1725869 Ontario Inc,Whlse.,110,19097,26 Ave,V3S3V7,7782921029,1,SSTC,Commercial/Industrial,2011,-122.69427,49.04938
186 St. Animal Hospital,Professional Practitioner-Veterinarian,102,18655,Fraser Hwy,V3S7Y3,6045741133,1,CTC,Commercial/Industrial,2011,-122.70531,49.12542
2000 Automotive Collision Technical Services Ltd,Auto Body/Painting,103,12303,King George Blvd,V3V3K2,6045802886,1,WTC,Commercial/Industrial,2011,-122.88026,49.20598
20050618 Enterprises Ltd,Retail Chinese Herbs,0,15277,100 Ave,V3R8X2,6045832338,3,GTC,Commercial/Industrial,2011,-122.79881,49.18431
21st Century Dental Centre,Dental Office,139,12101,72 Ave,V3W2M1,6045432600,2,NTC,Commercial/Industrial,2011,-122.88748,49.13414
24/7 Realty Inc,Real Estate Office,108,10422,168 St,V4N1R9,6047221522,1,GTC,Commercial/Industrial,2011,-122.75634,49.19196
247 Networks Ltd,Computer Consulting - Graphics,120,8232,120 St,V3W3N4,6045922473,1,NTC,Commercial/Industrial,2011,-122.89023,49.15293
3 Axis Manufacturing & Design,Mfg. - Customised Cutting,4,19295,Enterprise Way,V3S6J8,7782782900,1,CTC,Commercial/Industrial,2011,-122.6878,49.10821
3 M Finishers,Carpentry,4,12484,82 Ave,V3W3E9,6045922973,1,NTC,Commercial/Industrial,2011,-122.87629,49.15189
30 Minute Hit South Surrey,Martial Arts Fitness Circuit,0,2404,King George Blvd,V4P1H5,6042182274,1,SSTC,Commercial/Industrial,2011,-122.79363,49.0458
3D Mom & Baby Ultrasound,Professional Practitioner-Medical,308,16088,84 Ave,V4N0V9,6046570435,1,FTC,Commercial/Industrial,2011,-122.77632,49.15537
4 Season House of Crockery & Giftware,Household Items,383,8148,128 St,V3W1R1,6040,1,NTC,Commercial/Industrial,2011,-122.86784,49.15071
4Cats Arts Studio,Children's Art Studio,140,3388,Rosemary Heights Cr,V3S0K7,6045605100,4,SSTC,Commercial/Industrial,2011,-122.79822,49.06357
5 Corner Dental,Professional Practitioner-Dentist,1,5989,168 St,V3S3X5,6045744000,3,CTC,Commercial/Industrial,2011,-122.75676,49.11133
5 Star Catering Ltd,Caterer,0,5640,188 St,V3S4N5,6045975067,4,CTC,Commercial/Industrial,2011,-122.7015,49.10486
5 Star Window Blinds,Installation of Blinds,302,7728,128 St,V3W1L3,6046167966,1,NTC,Commercial/Industrial,2011,-122.86779,49.14358
545263 BC Ltd,General Cont.,204,10190,152A St,V3R1J7,6045801042,1,GTC,Commercial/Industrial,2011,-122.79936,49.18767
557313 B C Ltd,Apartment/Townhouse Rental,0,5668,176A St,V3S4H1,6047319898,1,CTC,Commercial/Industrial,2011,-122.73355,49.1054
600575 BC Ltd,Truck Parking,0,10607,Span Rd,V3V3V5,6048304386,1,WTC,Commercial/Industrial,2011,-122.88895,49.1958
622151 B C Ltd,"Service Station,Automated Teller Machine",0,19186,96 Ave,V4N3R3,6048884434,3,GTC,Commercial/Industrial,2011,-122.69097,49.17691
62nd Gas & Snack Ltd,"Gas Station, Convenience Store",0,6221,King George Blvd,V3X1G1,6045724844,6,NTC,Commercial/Industrial,2011,-122.84521,49.1165
636718 BC Ltd,General Cont.,103,2428,King George Blvd,V5P1H5,6045364663,1,SSTC,Commercial/Industrial,2011,-122.79415,49.04621
654842 B C Ltd,General Cont.,18,19257,Enterprise Way,V3S6J8,6045982502,1,CTC,Commercial/Industrial,2011,-122.68877,49.10789
678859 BC Ltd,Administration Office,201,12788,76A Ave,V3W1S9,6045729111,1,NTC,Commercial/Industrial,2011,-122.86814,49.14224
7 Days Laundromat Ltd,"Industrial laundry & linens, pick up & delivery",112,8655,130 St,V3W1V9,6045935064,1,NTC,Commercial/Industrial,2011,-122.86259,49.15989
7 Days Seafoods & Groceries,Seafood & Groceries,0,10711,King George Blvd,V3T2X6,6045852258,2,SCC,Commercial/Industrial,2011,-122.84544,49.19719
7 Eleven,Convenience Store,0,15961,Fraser Hwy,V4N0Y3,6045975156,4,FTC,Commercial/Industrial,2011,-122.78004,49.15793
7 Eleven #34907,Convenience Store with Gas Station,0,13993,Fraser Hwy,V3T4E6,6045895390,6,SCC,Commercial/Industrial,2011,-122.83461,49.179
7 Eleven (152 St),Retail Conv. Store,0,2390,152 St,V4A4N9,6047192001,10,SSTC,Commercial/Industrial,2011,-122.80106,49.04537
7 Eleven Canada Inc,Head Office for 7-Eleven Convenience Stores,2400,13450,102 Ave,V3T0C3,6045860711,110,SCC,Commercial/Industrial,2011,-122.84913,49.18811
7 Eleven Canada Inc,Retail,101,14410,108 Ave,V3R1V4,6045842077,10,GTC,Commercial/Industrial,2011,-122.82273,49.19869
7 Eleven Canada Inc #26365,Convenience Store,0,7988,120 St,V5G4P3,6042990711,6,NTC,Commercial/Industrial,2011,-122.89022,49.14822
7 Eleven Canada Inc (10190 King George Blvd),Retail Conv. Store,0,10190,King George Blvd,V3T2W4,6042990711,5,SCC,Commercial/Industrial,2011,-122.84527,49.18759
7 Eleven Canada Inc (17638 - 60 Ave),"Retail Conv. Store, Gas Station",0,17638,60 Ave,V3S1V2,6042990711,10,CTC,Commercial/Industrial,2011,-122.73397,49.11139
7 Star Security Services Inc,Security Service,103,8356,120 St,V3W3N4,7782427277,7,NTC,Commercial/Industrial,2011,-122.89023,49.15513
701226 B C Ltd,General construction,103,2428,King George Blvd,V4P1H5,6045364663,8,SSTC,Commercial/Industrial,2011,-122.79415,49.04621
7140 Medical Clinic,Medical Clinic,110,7140,120 St,V3W3M8,6045918008,2,NTC,Commercial/Industrial,2011,-122.89022,49.13294
777 Pizza & Donair,Pizza,0,7711,128 St,V3W4E6,6045027773,1,NTC,Commercial/Industrial,2011,-122.86807,49.14332
786 Auto Service & Collision Ltd,Auto Repair,0,10652,135 St,V3T4C7,6045999120,1,SCC,Commercial/Industrial,2011,0,0
786 G S Watches & Dog Tags,Retail,0,10153,King George Blvd,V3T2W1,6045824263,1,SCC,Commercial/Industrial,2011,-122.84555,49.18696
786 Game Stop,"Computers, video games, watches, dog tags, etc.",2653,10153,King George Blvd,V3T2W1,6045824263,1,SCC,Commercial/Industrial,2011,-122.84555,49.18696
786 Micronet Computers Inc,Computer Sales,105,10252,135 St,V3T4C2,6045884300,1,SCC,Commercial/Industrial,2011,0,0
803502 B C Ltd,Pharmacy - Retail Naturopathic Health Supplies,111,15388,24 Ave,V4A2J2,6045427780,10,SSTC,Commercial/Industrial,2011,-122.79602,49.04551
833489 BC Ltd,Security Service,393,8148,128 St,V3W1R1,6045982424,1,NTC,Commercial/Industrial,2011,-122.86784,49.15071
833490 BC Ltd,Security Service,393,8148,128 St,V3W1R1,6045982424,1,NTC,Commercial/Industrial,2011,-122.86784,49.15071
836261 BC Ltd,Real Estate,392,8148,128 St,V3W1R1,6045982424,1,NTC,Commercial/Industrial,2011,-122.86784,49.15071
8386 Scott Road Medical Center,Medical Clinic,103,8386,120 St,V3W3N4,6045949990,6,NTC,Commercial/Industrial,2011,-122.89023,49.15566
88 & Fraser Foods,Retail Convenience Store,0,15278,Fraser Hwy,V3R3P4,6045821717,1,FTC,Commercial/Industrial,2011,-122.80137,49.16599
99 Nursery & Florist Inc,"Nursery & Florist, Giftware",0,9376,King George Blvd,V3V5W3,6045846555,10,WTC,Commercial/Industrial,2011,-122.84565,49.17327
99 Nursery & Florist Inc,"Nursery & Florist, Giftware",0,9376,King George Blvd,V3V5W3,6045846555,10,WTC,Commercial/Industrial,2011,-122.84565,49.17327
A & A Autobody Repairs,Auto Body/Painting,67,13330,116 Ave,V3R0R8,6047231178,1,WTC,Commercial/Industrial,2011,0,0
A & A Contract Customs Brokers,Customs Broker,101,120,176 St,V3S9S2,6045427264,67,SSTC,Commercial/Industrial,2011,-122.73518,49.00433
A & A Testing Ltd,Testing Of Underground Utility Lines,102,19429,54 Ave,V3S7X2,6045147635,2,CTC,Commercial/Industrial,2011,-122.68475,49.10021
A & B Gill Ventures Ltd,Administration Office,201,12788,76A Ave,V3W1S9,6045729111,1,NTC,Commercial/Industrial,2011,-122.86814,49.14224
A & B Tool Rentals Ltd,Equipment & tool rental,0,10498,King George Blvd,V3T2W9,6048798284,1,SCC,Commercial/Industrial,2011,-122.8452,49.1931
A & D Snider's Home Plans Ltd,Home Design And Engineering Service,0,16211,84 Ave,V4N1B3,6045892929,2,FTC,Commercial/Industrial,2011,-122.77298,49.15556
A & F Caribbean Breeze Catering Ltd,Caterer,7,8145,130 St,V3W7X4,6045943384,1,NTC,Commercial/Industrial,2011,-122.86241,49.15058
A & K Diesel Repair Ltd,Truck Repairs,0,17841,64 Ave,V3S1Z3,6045976567,2,CTC,Commercial/Industrial,2011,-122.72854,49.11886
A & R Electric Ltd,Contractor - Electrical,105,13308,76 Ave,V3W2W1,6045977088,9,NTC,Commercial/Industrial,2011,-122.85377,49.14082
A & S Insurance Services Ltd,Insurance Agency,0,8294,120 St,V3W3N4,6045913700,1,NTC,Commercial/Industrial,2011,-122.89023,49.15403
A & W Food Services,Restaurant,0,15280,56 Avenue,V3S5K7,6047647062,1,NTC,Commercial/Industrial,2011,-122.79888,49.10433
A & W Restaurant,Restaurant,0,8488,120 St,V3W3N5,6048615522,25,NTC,Commercial/Industrial,2011,-122.89023,49.15722
A & W Restaurant,Restaurant - No Alcohol,0,13645,102 Ave,V3T1N7,6045178447,45,SCC,Commercial/Industrial,2011,-122.84367,49.18791
A & W Restaurant,Restaurant,2702,10153,King George Blvd,V3T2W1,6045178447,16,SCC,Commercial/Industrial,2011,-122.84555,49.18696
A & W Restaurant,Restaurant,0,2303,King George Blvd,V4A5A4,6048615522,20,SSTC,Commercial/Industrial,2011,-122.79144,49.04374
A & W Restaurant (#10 Hwy),Restaurant,0,17830,56 Ave,V3S1C7,6045749594,12,CTC,Commercial/Industrial,2011,-122.72849,49.10408
A & W Restaurant (10110 - 152 St),Fast Food Restaurant,0,10110,152 St,V3R9W3,6045818616,32,GTC,Commercial/Industrial,2011,-122.80077,49.18634
A & W Restaurant (72 Ave),Restaurant,0,12133,72 Ave,V3W2M1,6045962224,25,NTC,Commercial/Industrial,2011,-122.88664,49.13413
A & W Restaurant (7330 King George Blvd),Restaurant,0,7330,King George Blvd,V3W5A5,6045902226,26,NTC,Commercial/Industrial,2011,-122.84546,49.13594
A & W Restaurant (Fraser Hwy),Fast Food Restaurant,0,15988,Fraser Hwy,V4N0X8,6045979599,24,FTC,Commercial/Industrial,2011,-122.77933,49.15744
A & Z Motorcars Ltd,Automobile Dealer/Rebuilder,0,15284,Fleetwood Dr,V3R1B5,6045943888,1,FTC,Commercial/Industrial,2011,-122.79906,49.16447
A 1 Auto Sales Ltd,"Used Car & Truck Sales,MOBILE Window Tinting",0,12860,112 Ave,V3T2S9,6045800400,3,SCC,Commercial/Industrial,2011,-122.86572,49.20615
A 1 Coffee & Donuts,Restaurant,0,14795,108 Ave,V3R1V9,6045814151,10,GTC,Commercial/Industrial,2011,-122.81275,49.19882
A 1 Doors & Mouldings Ltd,Manufacturer - Doors,0,12625,80 Ave,V3W3A6,6045911044,25,NTC,Commercial/Industrial,2011,-122.87251,49.14834
A 1 Granite Limited,"Slabs, Granite, Tiles, Stone",0,14747,64 Ave,V3W1N9,6045974412,1,NTC,Commercial/Industrial,2011,-122.81372,49.11922
A 1 Kitchen Cabinets Ltd,Mfg. - Cabinets,0,7750,128 St,V3W0R6,6045010690,1,NTC,Commercial/Industrial,2011,-122.8678,49.14392
A 1 Paul's Trailer Repair Ltd,Repair Serv.,0,19415,94 Ave,V4N4E6,6048828627,18,GTC,Commercial/Industrial,2011,-122.68464,49.17366
A 1 Sponge & Foam Fabrications Ltd,Foam Fabrications,0,14666,64 Ave,V3S1X7,6045903626,12,NTC,Commercial/Industrial,2011,-122.81586,49.11904
A 1 Sportswear & More,Wholesale,111,12888,80 Ave,V3W3A8,6047854925,1,NTC,Commercial/Industrial,2011,-122.86545,49.14807
A 1 Trusses 2002 Ltd,Engineering Wood Trusses,201,8334,128 St,V3W4G2,6045802200,12,NTC,Commercial/Industrial,2011,-122.86786,49.15406
A 1 Window Tinting,Automobile Cleaning/Car Wash/Detailing,101,12736,80 Ave,V3W3A7,6045996500,1,NTC,Commercial/Industrial,2011,-122.86977,49.1481
A 1 Wireless Inc,Repair of Cell Phones & Computers,104,17767,64 Ave,V3S1Z2,6045753119,1,CTC,Commercial/Industrial,2011,-122.73051,49.11886
A 1 Wireless Inc,Retail Cell Phones,203,12899,76 Ave,V3W1E6,6045029666,1,NTC,Commercial/Industrial,2011,-122.86467,49.14109
A 2 Z Arena Products Ltd,Wrhse.,0,10952,Scott Rd,V3N1J3,6047267400,1,WTC,Commercial/Industrial,2011,-122.8791,49.20207
A A A  Convenience & Dollar Deals Ltd,Dollar Store,0,13647,100 Ave,V3T1H9,6045854822,1,SCC,Commercial/Industrial,2011,-122.84363,49.1844
A A A Acupuncture Clinic,Acupuncture,203,8434,120 St,V3W7S2,6044358512,1,NTC,Commercial/Industrial,2011,-122.89023,49.15647
A A A Kitchen Cabinets Ltd,Kitchen cabinets,0,12117,86 Ave,V3W3H8,6045981300,2,NTC,Commercial/Industrial,2011,-122.88678,49.1597
A A C Woodworking & Mfg Ltd,Mfg. - Custom Woodworking & Manufacturing,0,13315,72 Ave,V3W2N5,6045943288,4,NTC,Commercial/Industrial,2011,-122.85416,49.13376
A A P K A Fashion,Retail Merchant,173,8138,128 St,V3W1R1,6045881080,1,NTC,Commercial/Industrial,2011,-122.86784,49.15053
A B C Country Restaurant,Dining Lounge,101,15373,Fraser Hwy,V3R3P3,6045833228,38,FTC,Commercial/Industrial,2011,-122.79691,49.16445
A B C Country Restaurant,Food Primary-Class B Dining Lounge,600,7380,King George Blvd,V3W5A5,6045962997,24,NTC,Commercial/Industrial,2011,-122.84547,49.13692
A B C Country Restaurant,Dining Lounge,0,19219,No 10 (Langley Bypass) Hwy,V3S8V9,6045767770,29,CTC,Commercial/Industrial,2011,0,0
A B C Country Restaurant (158 St),Restaurant,0,10410,158 St,V4N5C2,6049304717,40,GTC,Commercial/Industrial,2011,-122.78402,49.19165
A B C Customs Brokers Ltd,Customs Broker,110,17637,1 Ave,V3S9S1,6045385777,9,SSTC,Commercial/Industrial,2011,-122.73414,49.00409
A B C Customs Brokers Ltd,Customs Broker,110,17637,1 Ave,V3S9S1,6045385777,9,SSTC,Commercial/Industrial,2011,-122.73414,49.00409
A B C Metals,Scrap Metal Recycling,0,19355,54 Ave,V3S8E5,6045338522,10,CTC,Commercial/Industrial,2011,-122.68771,49.10125
A B C Pressworks,Commercial Printer,113,14620,64 Ave,V3S1X7,6045918424,1,NTC,Commercial/Industrial,2011,-122.81709,49.11904
A B C Transmissions Ltd,Transmission sales & service,0,9357,193 St,V4N4E7,6048881211,1,GTC,Commercial/Industrial,2011,-122.68798,49.17278
A B Daily Fresh Market Co Ltd,Produce & Supermarket,109,8910,120 St,V3V4B4,6045964044,1,WTC,Commercial/Industrial,2011,-122.89019,49.16519
A B F Freight System BC Ltd,Trucking,174,17735,1 Ave,V3S9S1,6045420727,9,SSTC,Commercial/Industrial,2011,-122.73163,49.00391
A B M Products Inc,Import/Export,207,9785,192 St,V4N4C7,6048829473,3,GTC,Commercial/Industrial,2011,-122.69044,49.18052
A B S Janitorial Services Ltd,Janitorial supplies,32,8528,123 St,V3W3V6,6043416594,1,NTC,Commercial/Industrial,2011,-122.88218,49.15837
A Best Autobody & Frame Ltd,Auto Body/Painting,101,12303,King George Blvd,V3V3K2,6045852378,1,WTC,Commercial/Industrial,2011,-122.88026,49.20598
A C R Glass Inc,Residental & commercial glass installation,111,8952,Holt (120a St) Rd,V3V4H2,6045020035,5,WTC,Commercial/Industrial,2011,-122.88912,49.16589
A C R Systems Inc,Mfg. - Electronic Data Logging Equipment,210,12960,84 Ave,V3W1K7,6045911128,16,NTC,Commercial/Industrial,2011,-122.86358,49.15529
A C Tax & Accounting Services Ltd,Professional Practitioner-Accountant,314,8128,128 St,V3W1R1,6045994435,1,NTC,Commercial/Industrial,2011,-122.86784,49.15035
A Class Doors Ltd,Mfg. - Pre Hung Doors,11,8336,129 St,V3W4G2,6045720222,7,NTC,Commercial/Industrial,2011,-122.86539,49.15431
A Class Fabrication Co Ltd,Metal fabrication,0,8065,130 St,V3W7X4,6045728585,4,NTC,Commercial/Industrial,2011,-122.86241,49.14931
A D A A Collection Ltd,Retail,111,8166,128 St,V3W1R1,7785887088,1,NTC,Commercial/Industrial,2011,-122.86785,49.15104
A D T Financial Inc,Financial services,101,7475,135 St,V3W0M8,6046353150,1,NTC,Commercial/Industrial,2011,-122.84854,49.1387
A E Concrete Con Force Division of Armtec Limited Partnershi,Manufacturing - Precast Concrete,0,19060,54 Ave,V3S8E5,6045761808,25,CTC,Commercial/Industrial,2011,-122.69455,49.1007
A G Way to Go Products Ltd,Administration Office,211,15252,32 Ave,V3S0R7,6045383868,1,SSTC,Commercial/Industrial,2011,-122.80002,49.06149
A H & Jay Car Truck Repair Ltd,Auto Repair Service,108,12465,82 Ave,V3W3E8,6045960270,2,NTC,Commercial/Industrial,2011,-122.87683,49.15208
A Hook N Go Towing Ltd,Towing - No Storage,210,12451,82 Ave,V3W3E8,7788967800,1,NTC,Commercial/Industrial,2011,-122.87724,49.15209
A I N Holdings Corporation,Lottery Ticket Centre,0,10355,King George Blvd,V3T2W6,6045801892,1,SCC,Commercial/Industrial,2011,-122.8455,49.19087
A J Drury Custom Millwork Ltd,Millwork,0,12684,82 Ave,V3W3G1,6045070522,1,NTC,Commercial/Industrial,2011,-122.87036,49.15177
A J H Macdonald Limited,Mfg Agent - Hardware,0,2368,Christopherson Rd,V4A3L4,6045419922,2,SSTC,Commercial/Industrial,2011,-122.88252,49.0453
A J Photography,Photographer/Videographer,231,8138,128 St,V3W1R1,6046716080,1,NTC,Commercial/Industrial,2011,-122.86784,49.15053
A Kalra & Co,Accounting & Taxation Preparation.,207,9200,120 St,V3V4B7,6044965130,1,WTC,Commercial/Industrial,2011,-122.89012,49.17047
A L C A Distribution Inc,Wholesale,0,2430,King George Blvd,V4P1H5,6046353901,1,SSTC,Commercial/Industrial,2011,-122.79419,49.04625
A La Carte Woodturning,"Mfg. - Woodworking,Auto Body/Painting",66,13330,116 Ave,V3R0R8,6048086519,1,WTC,Commercial/Industrial,2011,0,0
A Lanfranco & Associates Inc,Environment Air Testing & Engineering,101,9488,189 St,V4N4W7,6048812582,7,GTC,Commercial/Industrial,2011,-122.69877,49.17499
A M C Carpets Ltd,Carpets,16,8388,128 St,V3W4G2,6045946141,4,NTC,Commercial/Industrial,2011,-122.86786,49.15503
A M Expresso,Restaurant,101,10277,135 St,V3T4C3,6049301505,3,SCC,Commercial/Industrial,2011,0,0
A Mac Machinery & Fabrication,Machine Shop & Fabrication,21,12484,82 Ave,V3W3E9,6045724449,1,NTC,Commercial/Industrial,2011,-122.87629,49.15189
A N P Aluminum Railing,Railing manufacturing,0,10905,Larson Rd,V3V3Y7,7783220246,1,WTC,Commercial/Industrial,2011,-122.87996,49.20098
A O A Finishing Ltd,Mfg.,208,12745,78 Ave,V3W1M4,7782181837,1,NTC,Commercial/Industrial,2011,-122.86891,49.14477
A P A Tax & Accounting Inc,Accounting Service,203,12639,80 Ave,V3W3A6,6045973206,2,NTC,Commercial/Industrial,2011,-122.87208,49.14833
A P Insurance Services Ltd,Insurance Agent,101,12788,76A Ave,V3W1S9,6045029199,1,NTC,Commercial/Industrial,2011,-122.86814,49.14224
A P T Education Center,Tutoring center for elementary to high school students,0,10061,136A St,V3T4G1,6047088785,1,SCC,Commercial/Industrial,2011,0,0
A Passion For Flowers Design Studio Ltd,"Retail - Florist, Home DÚcor,",11,3268,King George Blvd,V4P1A5,6045055088,1,SSTC,Commercial/Industrial,2011,-122.8135,49.06182
A Place For Us Society,Charitable Society,0,12054,96 Ave,V3V1W3,0,1,WTC,Commercial/Industrial,2011,-122.88867,49.17706
A Priority Locksmiths,Lock Repair Only - No Retail Sales Permitted,11,17921,55 Ave,V3S6C4,7782397679,1,CTC,Commercial/Industrial,2011,-122.72562,49.10238
A R & B Internet Site & Publishing Inc,Internet Web Designs & Services,517,7360,137 St,V3W1A3,6047606524,1,NTC,Commercial/Industrial,2011,-122.84268,49.13658
A R Thomson Ltd,Mfg. - Gaskets & Distributors,0,7930,130 St,V3W0H7,6045076050,34,NTC,Commercial/Industrial,2011,-122.86207,49.14707
A R Way Enterprises Ltd,Truck Parking,0,6739,176 St,V3S4G6,6046039593,1,CTC,Commercial/Industrial,2011,-122.73504,49.12477
A S Mattoo & Associates Law Office,Law Office,209,8120,128 St,V3W1R1,6045729945,1,NTC,Commercial/Industrial,2011,-122.86784,49.15021
A S Tax & Accounting 2007 Ltd,Accounting,102,9386,120 St,V3V4B9,6045832110,4,WTC,Commercial/Industrial,2011,-122.89007,49.17365
A Sandhu Music Gallery,Retail Music,103,6955,128 St,V3W4E1,7789084366,1,NTC,Commercial/Industrial,2011,-122.86794,49.12925
A Scott Discount Used Parts,"Auto Wrecking, Retail Used Auto Parts",0,10731,Scott Rd,V3V4G5,6045805477,46,WTC,Commercial/Industrial,2011,-122.88444,49.19763
A Scott Discount Used Parts,"Auto Wrecking, Retail Used Auto Parts",0,10731,Scott Rd,V3V4G5,6045805477,46,WTC,Commercial/Industrial,2011,-122.88444,49.19763
A T I Telecom International Company,"Telecommunications services provider, including installation",7,15050,54A Ave,V3S5X7,7785717000,1,NTC,Commercial/Industrial,2011,-122.80531,49.10163
A Taste of Punjab Restaurant,Food Primary-Class B Dining Lounge,0,10009,136A St,V3T4G1,6045887700,1,SCC,Commercial/Industrial,2011,0,0
A Top Cuts Barber,Barber,0,1679,128 St,V4A3V2,6045356220,1,SSTC,Commercial/Industrial,2011,-122.86766,49.03267
A V S Windows Ltd,Mfg. - Vinyl Windows,0,13070,115 Ave,V3R2T9,6045408500,1,WTC,Commercial/Industrial,2011,-122.85993,49.21114
A W Vandermeer & Associates,Professional Practitioner-Accountant,204,5752,176 St,V3S4C8,6045712060,2,CTC,Commercial/Industrial,2011,-122.73483,49.10692
A Zone Appliance,Retail - Major Home Appliance,0,14651,108 Ave,V3R1V9,6045946306,1,GTC,Commercial/Industrial,2011,-122.81611,49.19884
A2NC Anti Aging Nutrients Centre Pro Trainers Gym,Fitness Personal Trainer,19,19257,Enterprise Way,V3S6J8,6045399910,1,CTC,Commercial/Industrial,2011,-122.68877,49.10789
Aamco Transmissions,Auto Repair Service,102,16016,Fraser Hwy,V4N0G3,6045991213,3,FTC,Commercial/Industrial,2011,-122.77848,49.15711
Aarc West Mechanical Insulation Inc,Mechanical Insulation Cont.,0,19131,21 Ave,V3S3M3,6045359963,1,SSTC,Commercial/Industrial,2011,-122.69317,49.04034
Aaron Animal Hospital,Professional Practitioner-Veterinarian,101,5668,176A St,V3S4H1,6045761391,3,CTC,Commercial/Industrial,2011,-122.73355,49.1054
Aaron's Sales & Lease,"Retail - Furniture, Electronics, Appliances & Computers",0,10790,King George Blvd,V3T2X7,6045826778,1,SCC,Commercial/Industrial,2011,-122.84571,49.19872
Aaron's Steak & Pizza,Restaurant,0,17665,57 Ave,V3S1H1,6045768151,7,CTC,Commercial/Industrial,2011,-122.7332,49.10607
Abasa Optical,Optometrist,202,18730,Fraser Hwy,V3S7Y4,6045759141,1,CTC,Commercial/Industrial,2011,-122.70361,49.12443
Abbsry Tires Fleetwood,Tire sales & service,103,15685,Fraser Hwy,V4N0Y6,6045752224,5,FTC,Commercial/Industrial,2011,-122.78796,49.161
Abercromby Rathgeber,Chartered Accountants,305,15127,100 Ave,V3R0N9,6049519891,6,GTC,Commercial/Industrial,2011,-122.8031,49.18428
Abesco Transport and Towing,Trucking & Cartage - 1 Vehicle Only,0,12511,82 Ave,V3W3E8,6044402779,1,NTC,Commercial/Industrial,2011,-122.87547,49.15206
Abest Auto Sales Inc,Used Car Dealership,0,12473,King George Blvd,V3V3K3,7785522211,1,WTC,Commercial/Industrial,2011,-122.87661,49.20635
Abhi Insurance Agency Inc,Insurance Agent,302,8128,128 St,V3W1R1,6049966862,3,NTC,Commercial/Industrial,2011,-122.86784,49.15035
Abilities Neurological Rehabilition,Physiotherapy CLinic,206,5550,152 St,V3S5J9,6778552317,2,NTC,Commercial/Industrial,2011,-122.80091,49.10342
Able Autobody Newton,Auto Body Repair,0,8686,128 St,V3W4G5,6045941727,10,NTC,Commercial/Industrial,2011,-122.86788,49.16042
Able Doors Ltd,"Whlse. Doors, Moulding & Hardware,Doors moulding & hardware",23,12468,82 Ave,V3W4H5,6045970011,1,NTC,Commercial/Industrial,2011,-122.87677,49.1519
Able Tire Services,Automotive Repair,0,6925,176 St,V3S4P4,6045751619,1,CTC,Commercial/Industrial,2011,-122.73493,49.12863
Ablesun Plastics Ltd,Mfg.- Plastic,17,8125,130 St,V3W7X4,6045968928,3,NTC,Commercial/Industrial,2011,-122.86241,49.15026
Aboriginal Training Employment Cooperative,Charitable Society/Organization,0,10757,138 St,V3T4K8,7783950385,10,SCC,Commercial/Industrial,2011,-122.83978,49.19764
Abrahams Dr Ismail,Physician & Surgeon,7,13665,96 Ave,V3V1Z1,6045888381,2,SCC,Commercial/Industrial,2011,-122.84394,49.17712
Absolute Results,Consultant,106,2677,192 St,V3S3X1,6045419926,1,SSTC,Commercial/Industrial,2011,-122.69159,49.05092
Academy of Learning,Business School,102,13753,72 Ave,V3W2P2,6045983555,1,NTC,Commercial/Industrial,2011,-122.84061,49.13367
Acadia Commercial Interiors Ltd,Manufacturer - Wood Products,111,13119,84 Ave,V3W1B3,6045916388,8,NTC,Commercial/Industrial,2011,-122.85909,49.15549
Accent On Travel Inc,Travel Agency,140,15355,24 Ave,V4A2H9,6045315366,3,SSTC,Commercial/Industrial,2011,-122.79692,49.0457
Access MRI Surrey Clinic Inc,Medical Office,104,15137,56 Ave,V3S9A5,6042027858,2,NTC,Commercial/Industrial,2011,-122.80536,49.10455
Access Scaffold & Ladder Depot Ltd,Whlse. Scaffolding,4,9659,192 St,V4N4C7,6045139222,22,GTC,Commercial/Industrial,2011,-122.69047,49.1782
Access Xcetera,Retail,2258,0,Guildford Town Centre,V3R7C1,6045821991,6,GTC,Commercial/Industrial,2011,0,0
Accord Transportation Ltd,Warehouse,801,17665,66A Ave,V3S2A7,6045757505,12,CTC,Commercial/Industrial,2011,-122.73305,49.12343
Accost Insurance & Financial Centre Inc (King Geor,Insurance Agent,220,7093,King George Blvd,V3W5A2,6045027878,1,NTC,Commercial/Industrial,2011,-122.84572,49.13143
Accountemps & Officeteam,Temporary Staffing Serv.,302,15127,100 Ave,V3R0N9,6045814254,4,GTC,Commercial/Industrial,2011,-122.8031,49.18428
AccSys Solutions Inc,Computer Consulting/Repair/Design,401,19292,60 Ave,V3S3M2,6045344344,1,CTC,Commercial/Industrial,2011,-122.68848,49.1112
Accu Dent Dental Ceramics,Dental Lab,0,13634,Grosvenor Rd,V3R5C9,6045842228,2,SCC,Commercial/Industrial,2011,-122.84468,49.19932
Accubending Inc,Manufacturer - Aluminum & Metal,0,13761,116 Ave,V3R0T2,6045834022,2,WTC,Commercial/Industrial,2011,-122.84101,49.2136
Accuracia Security Patrol Ltd,Security Service,0,13765,58A Ave,V3X3J1,6047198669,1,NTC,Commercial/Industrial,2011,-122.84092,49.10965
Accurate Fabricating Ltd,Mfg. - Steel Fabrication,0,12875,85 Ave,V3W0K8,6045916184,24,NTC,Commercial/Industrial,2011,-122.86598,49.15764
Accurate Metal Powder Coating Ltd,Mfg/Machine Shop,129,12639,80 Ave,V3W3A6,6045856765,4,NTC,Commercial/Industrial,2011,-122.87208,49.14833
Accurpress Tooling Systems Inc,Mfg. - Press Brakes & Shears,0,17400,56 Avenue,V3S1C3,6045746993,20,CTC,Commercial/Industrial,2011,-122.74096,49.104
Ace Cheque Cashing,Cheque cashing,0,12411,King George Blvd,V3V3K3,6045801811,3,WTC,Commercial/Industrial,2011,-122.87821,49.20628
Ace Courier Services Ltd,Courier Service,0,9275,194 St,V4N4G1,6048822025,1,GTC,Commercial/Industrial,2011,-122.6851,49.17145
Ace Doors 2010 Ltd,Doors & Cabinets,8,12111,86 Ave,V3W3H8,6045903330,3,NTC,Commercial/Industrial,2011,-122.88692,49.1597
Ace Installations Ltd,Drycleaning Equipment,13,13550,77 Ave,V3W6Y3,6045946155,1,NTC,Commercial/Industrial,2011,-122.84749,49.14261
Ace Learning Centre,Tutoring,210,8120,128 St,V3W1R1,7783172346,1,NTC,Commercial/Industrial,2011,-122.86784,49.15021
Ace Truck & Equipment Repairs Ltd,"Truck & Equipment Repair, Truck Sales",0,19155,96 Ave,V4N3P2,6048881133,16,GTC,Commercial/Industrial,2011,-122.69181,49.17709
Acenture Engineering Consultants Ltd,"Designing, installation and consulting HVAC",207,12830,80 Ave,V3W3A8,6046149959,1,NTC,Commercial/Industrial,2011,-122.86703,49.14807
Achilles Foot Health Centre,Podiatrist,102,10190,152A St,V3R1J7,6045895234,3,GTC,Commercial/Industrial,2011,-122.79936,49.18767
Acklands Grainger Inc,Whlsl - Auto Parts,101,12779,80 Ave,V3W3A6,6045962121,6,NTC,Commercial/Industrial,2011,-122.86859,49.14826
Acklands Grainger Inc,Wholesale - Industrial & Automotive Supplies,0,9725,192 St,V4N4C7,9057095560,1,GTC,Commercial/Industrial,2011,-122.69046,49.17941
Acme Shipping Supplies,Wholesale - Shipping Supplies,111,13060,80 Ave,V3W3B2,6045725793,7,NTC,Commercial/Industrial,2011,-122.86059,49.14808
Acoustica Hearing Aid,Hearing Aid Service,0,15252,32 Ave,V3S0R7,6045351030,1,SSTC,Commercial/Industrial,2011,-122.80002,49.06149
Acrodyne Fabricators Inc,Mfg. - Precision Sheet Metal Fabricators,112,8310,130 St,V3W8J9,6045969711,1,NTC,Commercial/Industrial,2011,-122.86215,49.15354
Act One Studio,"Acting Classes, Business School",0,14914,104 Ave,V3R1M7,6043415931,1,GTC,Commercial/Industrial,2011,-122.8088,49.1914
Action Automotive,Automotive Repair Service,104,19429,54 Ave,V3S7X2,6045304600,1,CTC,Commercial/Industrial,2011,-122.68475,49.10021
Action Installations Ltd,"Fabrication & installation of stainless steel, aluminum",107,18935,96 Ave,V4N3P3,7782982927,5,GTC,Commercial/Industrial,2011,-122.69788,49.17709
Action Tire Services,"Automotive Service & Tire Sales,Wholesale - New & Used Tires",0,12520,110 Ave,V3V3J8,6045801766,3,WTC,Commercial/Industrial,2011,-122.87539,49.20252
Active Collision Services Ltd,Auto frame repair & body repair,101,12743,80 Ave,V3W3A6,6049615725,1,NTC,Commercial/Industrial,2011,-122.86956,49.14828
Active Doors & Mouldings Ltd,Whlse. Doors & mouldings,0,7677,134 St,V3W9E9,6045901088,1,NTC,Commercial/Industrial,2011,-122.85134,49.14228
Active Electric Ltd,Electrical Cont.,47,13310,116 Ave,V3R0R8,6045842923,1,WTC,Commercial/Industrial,2011,0,0
Active Insights Health Care,Professional Practioner - Psychology,217,3388,Rosemary Heights Cr,V3S0K7,7782944295,1,SSTC,Commercial/Industrial,2011,-122.79822,49.06357
Active Insurance & Financial Management Ltd,Insurance Agency,103,8334,128 St,V3W4G2,6045017878,2,NTC,Commercial/Industrial,2011,-122.86786,49.15406
Active Laser Skin Care & Wholesale,Wholesale,122,12827,76 Ave,V3W2V3,6047808892,1,NTC,Commercial/Industrial,2011,-122.86637,49.1411
Active Learning Centre,Tutoring,103,15299,68 Ave,V3S2C1,6048055560,1,NTC,Commercial/Industrial,2011,-122.79818,49.12644
Acupuncture & Chinese Medicine Health Clinic,Acupuncture Clinic,11,15243,91 Ave,V3R8P8,6045885873,1,FTC,Commercial/Industrial,2011,-122.7998,49.16837
Acura Computers & Electronics Ltd,Mfg. - Computer Assembly Equip.,1,7711,128 St,V3W4E6,6045029666,2,NTC,Commercial/Industrial,2011,-122.86807,49.14332
Acura Embedded Sytems Inc,Mfg. - Computers,24,7711,128 St,V3W4E6,6045029666,2,NTC,Commercial/Industrial,2011,-122.86807,49.14332
Acura of Langley,Parts & service,0,19447,No 10 (Langley Bypass) Hwy,V3S6K1,6045392111,5,CTC,Commercial/Industrial,2011,0,0
Acura Transport Ltd,Dispatch office,0,7880,128 St,V3W4E8,6045993909,1,NTC,Commercial/Industrial,2011,-122.86781,49.14636
Adams Beverages Ltd,Mfg. - Soft Drinks,60,13320,116 Ave,V3R0R8,6045806811,6,WTC,Commercial/Industrial,2011,0,0
Adanac Roofing Ltd,Roofing/Insulation Cont.,120,19358,96 Ave,V4N4C1,6048881616,8,GTC,Commercial/Industrial,2011,-122.68669,49.1769
ADCO CNC Machining Inc,Mfg. - Metal Products,108,13119,84 Ave,V3W1B3,6045924544,1,NTC,Commercial/Industrial,2011,-122.85909,49.15549
Added Touch Interiors Ltd The,"Blinds, Draperies, Hardware & Bedspreads",19,3033,King George Blvd,V4P1B8,6045385889,1,SSTC,Commercial/Industrial,2011,-122.80823,49.05729
Addition Elle,Ladie's Wear,310,3091,152 St,V4P3K1,5143841140,10,SSTC,Commercial/Industrial,2011,-122.80134,49.05826
Addition Elle (122 St),Retail Ladies Wear,0,7233,122 St,,6045166977,2,NTC,Commercial/Industrial,2011,-122.88491,49.13461
Addition Elle (Guildford Town Centre),Retail Ladies Wear,0,1373,Guildford Town Centre,V3R7B7,6045819448,6,GTC,Commercial/Industrial,2011,0,0
Adel's Cut,Hairdressing,0,12819,96 Ave,V3V6V9,6045895588,1,SCC,Commercial/Industrial,2011,-122.86727,49.17726
Adityas Dance School,Recreational Facility,103,12815,85 Ave,V3W0K8,6046137888,1,NTC,Commercial/Industrial,2011,-122.86755,49.15752
Adriana Islamic Gift Market,Retail - Gifts,0,10705,King George Blvd,V3T2X6,6049570999,2,SCC,Commercial/Industrial,2011,-122.84543,49.19709
Adriano's Stainless Ltd,Mfg.,0,9531,194A St,V4N4G4,6044550099,1,GTC,Commercial/Industrial,2011,-122.68453,49.17588
Adrich Management Ltd,Consultant,215,5455,152 St,V3S5A5,6045745309,1,NTC,Commercial/Industrial,2011,-122.8012,49.10185
Adryon Roth - RMT,Massage Therapy (RMT),214,12080,Nordel Way,V3W1P6,6045915569,1,NTC,Commercial/Industrial,2011,-122.88729,49.16184
Advance Connexions Inc,Contractor - Electrical,0,12180,86 Ave,V3W3H7,6045948288,1,NTC,Commercial/Industrial,2011,-122.88529,49.15952
Advance Engineered Products Ltd,Tank Trailer Service & Repairs.,300,19325,96 Ave,V4N4C4,6048882610,36,GTC,Commercial/Industrial,2011,-122.68745,49.17708
Advance Lumber Remanufacturing Ltd,Mfg. - Cutting & Packaging Lumber,0,12184,Old Yale Rd,V3V3X5,6045804918,20,WTC,Commercial/Industrial,2011,-122.88507,49.20037
Advance Tech Autobody & Paint Ltd,Autobody Repair & Painting,7,8365,124 St,V3W9G2,6045949713,2,NTC,Commercial/Industrial,2011,-122.87924,49.15495
Advance Testing Ltd,Engineering & Materials Testing,5,9525,189 St,V4N5L8,6045130316,1,GTC,Commercial/Industrial,2011,-122.69904,49.17562
Advance Tutoring Service & Academy,Business School,204,16088,84 Ave,V4N0V9,6048312560,1,FTC,Commercial/Industrial,2011,-122.77632,49.15537
Advance Wire Products Ltd,Mfg. - Custom Grocery Store Fixtures,0,19095,24 Ave,V3S3S9,6045414666,60,SSTC,Commercial/Industrial,2011,-122.69418,49.04576
Advanced Brain Power Inc,Educational support services promoting academic excellence,180,8138,128 St,V3W1R1,7788376402,3,NTC,Commercial/Industrial,2011,-122.86784,49.15053
Advanced Call Centre Technology Inc,Call Centre,200,2626,Croydon Dr,V3S0S8,6045016921,1,SSTC,Commercial/Industrial,2011,-122.78948,49.05003
Advanced Distributors Ltd,Warehouse,165,19358,96 Ave,V4N4C1,6048881123,2,GTC,Commercial/Industrial,2011,-122.68669,49.1769
Advanced Hearing Solutions Inc,Retail Audiological Equip.,5,6450,120 St,V3W3M5,6045433301,2,NTC,Commercial/Industrial,2011,-122.89024,49.1203
Advanced Learning Centre Ltd,Trade School,111,12827,76 Ave,V3W2V3,6045437300,1,NTC,Commercial/Industrial,2011,-122.86637,49.1411
Advanced Professional Services Ltd,"Bookkeeping, Immigration Consultant",206,7928,128 St,V3W4E8,6045752786,1,NTC,Commercial/Industrial,2011,-122.86781,49.14655
Advanced Professional Services Ltd,"Bookkeeping, Immigration Consultant",206,7928,128 St,V3W4E8,6045752786,1,NTC,Commercial/Industrial,2011,-122.86781,49.14655
Advanced Saw Technologies Ltd,Saw Repair,15,19158,94 Ave,V4N4X8,6042093741,1,GTC,Commercial/Industrial,2011,-122.6918,49.17329
Advantage C K N,Grocery and pharmacy items,115,7455,132 St,V3W1J8,6045728686,20,NTC,Commercial/Industrial,2011,-122.85687,49.13808
Adventure Marine Mfg Inc,Assembly,0,16886,21 Ave,V3S9Z4,6045352217,3,SSTC,Commercial/Industrial,2011,-122.75463,49.04013
Aegis Industrial Finishing Ltd,Powder coating of steel parts & painting metal pieces of equipment,103,19097,26 Ave,V3S3V7,7783840076,8,SSTC,Commercial/Industrial,2011,-122.69427,49.04938
AENA,Retail - Fashion Jewelry,0,2695,Guildford Town Centre,V3R7C1,6047892176,2,GTC,Commercial/Industrial,2011,-122.80271,49.1925
Aeon Pacific Mfg Ltd,Mfg. - Plastic Injection Molding,1,17920,Roan Pl,V3S5K1,6045766701,4,CTC,Commercial/Industrial,2011,-122.72583,49.10083
Aerocan Immigration Consulting Ltd,Immigration Consultant,0,12830,80 Ave,V3W3A8,6048971213,1,NTC,Commercial/Industrial,2011,-122.86703,49.14807
Aeropostale Canada #3012,Retail,0,2608,Guildford Town Centre,V3R7C1,6044956575,10,GTC,Commercial/Industrial,2011,0,0
Aerotek ULC,Employment Agency/Recruiting Service,202,15127,100 Ave,V3R0N9,6045018780,1,GTC,Commercial/Industrial,2011,-122.8031,49.18428
Aesseal Canada Inc,"Whlse. & Service - Mechanical Seals, Ind. Supplies",20,3033,King George Blvd,V4P1B8,6048802770,1,SSTC,Commercial/Industrial,2011,-122.80823,49.05729
Aesthetic Dental Group,Professional Practitioner-Dentist,111,7322,King George Blvd,V3W5A5,6045908839,4,NTC,Commercial/Industrial,2011,-122.84546,49.13572
Affiliated Custom Brokers Ltd,Brokerage,212,17637,1 Ave,V3S9S1,6045351141,3,SSTC,Commercial/Industrial,2011,-122.73414,49.00409
Affinity Chiropractic,Professional Practitioner-Chiropractor,106,15966,108 Ave,V4N5V6,6045882938,1,GTC,Commercial/Industrial,2011,-122.77966,49.19871
Affinity Dance Inc,Dance Studio,190,19358,96 Ave,V4N4C1,6048829786,1,GTC,Commercial/Industrial,2011,-122.68669,49.1769
Affinity Manufacturing Ltd,Mfg.- Custom Parts,123,13045,84 Ave,V3W1B3,6045916667,3,NTC,Commercial/Industrial,2011,-122.861,49.15548
Affinity Massage Therapy,Massage Therapy (RMT),106,15966,108 Ave,V4N5V6,6045882938,1,GTC,Commercial/Industrial,2011,-122.77966,49.19871
Affordable Cabinet Doors Ltd,Cabinet door manufacturing,2,12468,82 Ave,V3W3E9,6043063891,1,NTC,Commercial/Industrial,2011,-122.87677,49.1519
Affordable Housing Charitable Association,Charitable Society/Organization,0,6438,King George Blvd,V3W4Z3,6045210818,1,NTC,Commercial/Industrial,2011,-122.84535,49.11974
Affordable Housing Charitable Association,Charitable Society/Organization,0,13927,68 Ave,V3W2G9,6045210818,1,NTC,Commercial/Industrial,2011,-122.8368,49.12631
Affordable Housing Charitable Association,Charitable Society/Organization,0,13947,68 Ave,V3W2G9,6045210818,1,NTC,Commercial/Industrial,2011,-122.83618,49.12631
Affordable Housing Charitable Association,Charitable Society/Organization,0,7555,120A St,V3W1N4,6045210818,1,NTC,Commercial/Industrial,2011,-122.88903,49.14043
Affordable Housing Charitable Association,Charitable Society/Organization,0,12615,72 Ave,V3W1E8,6045210818,1,NTC,Commercial/Industrial,2011,-122.87292,49.13401
Afghan Bakery and Fast Food,Bakery,0,13748,104 Ave,V3T1W5,6045810100,1,SCC,Commercial/Industrial,2011,-122.84123,49.19148
Afghan Chopan Restaurant & Bakery,Bakery,105,8299,129 St,V3W0A6,6045432385,1,NTC,Commercial/Industrial,2011,-122.86566,49.15368
Afit Trust,Financial Planning Consult.,0,15225,104 Ave,V3R6Y8,6045803343,2,GTC,Commercial/Industrial,2011,-122.80019,49.19157
African Children's Choir,Wrhse.,100,19289,Langley Bypass,V3S6K1,6045754500,1,CTC,Commercial/Industrial,2011,0,0
African Superstore,Retail - African Specialty Foods,105,10761,King George Blvd,V3T2X6,6045974912,1,SCC,Commercial/Industrial,2011,-122.8457,49.19814
Agatha Cluff Inc,Professional Practitioner-Accountant,304,15957,84 Ave,V4N0W7,6045991688,2,FTC,Commercial/Industrial,2011,-122.78008,49.15556
Agent 88,Retail,2154,2654,Guildford Town Centre,V3R7C1,6046883689,3,GTC,Commercial/Industrial,2011,0,0
Aggarwal Health & Wellness Centre,Holistic Health Care,18,8430,128 St,V3W4G3,7783190030,1,NTC,Commercial/Industrial,2011,-122.86786,49.156
Aggarwal Sweets,Preparation & sale of East Indian Sweets,351,8158,128 St,V3W1R1,6045430772,4,NTC,Commercial/Industrial,2011,-122.86784,49.15089
Aggarwal Sweets,Manufacturing sweets & food,0,15299,68 Ave,V3S2C1,6047812365,5,NTC,Commercial/Industrial,2011,-122.79818,49.12644
Aggressive Tube Bending Inc,Metal Tube Bending & Fabrication,0,9775,188 St,V4N3N2,6048824872,5,GTC,Commercial/Industrial,2011,-122.7014,49.18001
Aggressive Tube Bending Inc (9750 - 188 St),Mfg. - Tube Bending,0,9750,188 St,V4N3M2,6048824872,35,GTC,Commercial/Industrial,2011,-122.70113,49.1796
Agnihotri Immigration Consultanting Inc,Immigration Consultant,204,12788,76A Ave,V3W1S9,6045972284,1,NTC,Commercial/Industrial,2011,-122.86814,49.14224
Agria Trading Co Ltd,Wrhse. - Bathroom furniture,2,13550,77 Ave,V3W6Y3,6045019788,4,NTC,Commercial/Industrial,2011,-122.84749,49.14261
AI Industries,Mfg. - Miscellaneous & Structural Steel Fabrication & Welding,0,12349,104 Ave,V3V3H2,6045832171,35,WTC,Commercial/Industrial,2011,-122.88098,49.19201
AIBC Adjusters International Ltd,Insurance Adjuster,201,8501,162 St,V4N1B2,6045908694,1,FTC,Commercial/Industrial,2011,-122.77345,49.15731
Aidelbaum Dr Martin R,Oral & Maxillofacial Surgeon,404,15127,100 Ave,V3R0N9,6045897000,5,GTC,Commercial/Industrial,2011,-122.8031,49.18428
Aim Dental Centre,Professional Practitioner-Dentist,624,10833,160 St,V4N1P3,6045812461,1,GTC,Commercial/Industrial,2011,-122.77881,49.19925
Aimmed Manufacturing Ltd,Manufacturer - Dressing Pack,6,8145,130 St,V3W7X4,6045916237,2,NTC,Commercial/Industrial,2011,-122.86241,49.15058
Air Tec Consulting Ltd,Environmental Testing,2,19102,27 Ave,V3S5T1,6045425400,1,SSTC,Commercial/Industrial,2011,-122.69415,49.05096
Air Vac Services Canada Ltd,"Ventilation Cleaning Cont.,Wholesale",106,9488,189 St,V4N4W7,6048829290,1,GTC,Commercial/Industrial,2011,-122.69877,49.17499
Airfast Distributors Ltd,Retail Building Supplies,0,7533,135 St,V3W0N6,6045913230,1,NTC,Commercial/Industrial,2011,-122.84854,49.13965
AirTek Pneumatics Ltd,Mfg. - Sawmill Cyclones & Dust Collection Systems,0,18919,96 Ave,V4N3P3,6048811223,20,GTC,Commercial/Industrial,2011,-122.69832,49.17709
Aisha Islamic Books & Ent Ltd,Religious books,201,9250,120 St,V3V4B7,6045897860,1,WTC,Commercial/Industrial,2011,-122.8901,49.17133
Ajay Food Ltd,Retail Merchant,107,9250,120 St,V3V4B7,6045848887,1,WTC,Commercial/Industrial,2011,-122.8901,49.17133
Ajit Holdings Inc,Apartment/Townhouse Rental,0,10711,135A St,V3T4E3,6046175929,3,SCC,Commercial/Industrial,2011,0,0
Akal Academy Society,Music & Punjabi School,204,12639,80 Ave,V3W3A6,6047807200,1,NTC,Commercial/Industrial,2011,-122.87208,49.14833
Akal Lions Tae Kwon Do,Business School,0,9547,152 St,V3R5Y5,7783865699,1,FTC,Commercial/Industrial,2011,-122.8012,49.17591
Akal Veggies,Restaurant - No Alcohol,5,7743,128 St,V3W1L4,6045020961,1,NTC,Commercial/Industrial,2011,-122.86807,49.1438
Akasaka Japanese Restaurant Surrey Ltd,Dining Lounge,0,15110,101 Ave,V3R7V4,6045881244,9,GTC,Commercial/Industrial,2011,-122.80342,49.18604
Akbar Auto Repair Shop,Auto Body Shop,1,11455,132A St,V3R7S2,7789915675,2,WTC,Commercial/Industrial,2011,-122.85519,49.21107
Al & Nick's Auto Services Ltd,Auto Repair,104,13463,78 Ave,V3W0A8,7782885752,1,NTC,Commercial/Industrial,2011,-122.84959,49.14461
Al Baraka Convenience Store & Halal Meat,Retail Merchant -,104,13980,108 Ave,V3T2L2,7783950333,4,SCC,Commercial/Industrial,2011,-122.83471,49.19876
Al Ihsan Educational Foundation,Charitable Society/Organization,0,7750,128 St,V3W0R6,7788786787,3,NTC,Commercial/Industrial,2011,-122.8678,49.14392
Al Madina Restaurant Inc,Fast Food Restaurant,0,9320,120 St,V3V4B8,6049513939,1,WTC,Commercial/Industrial,2011,-122.89009,49.17249
Al Mustafa,Restaurant,0,7638,Anvil (129a St) Way,V3W2V7,6045027827,1,NTC,Commercial/Industrial,2011,-122.86293,49.14168
Alamfoods Inc,Import/Export,220,3388,Rosemary Heights Cr,V3S0K7,6045419489,1,SSTC,Commercial/Industrial,2011,-122.79822,49.06357
Alarmtron BC Ltd,Contractor - Alarm,101,12414,82 Ave,V3W3E9,6045940022,1,NTC,Commercial/Industrial,2011,-122.87837,49.15194
Alberta Gear Centre Ltd,Automotive Repair Service,3,18763,96 Ave,V4N3M5,7904528800,1,GTC,Commercial/Industrial,2011,-122.7027,49.17709
Albert's Custom Covers & Upholstery Ltd,Upholstery,19,13325,76 Ave,V3W2V8,6043756560,1,NTC,Commercial/Industrial,2011,-122.85332,49.14099
Alcan Products Ltd,Mfg. - Roofing Materials,0,17358,104A Ave,V4N5M3,6045898888,1,GTC,Commercial/Industrial,2011,-122.74183,49.19235
Alcan Windows Ltd,Manufacturer/Machine Shop,0,7714,134 St,V3W6Y5,6045947226,7,NTC,Commercial/Industrial,2011,-122.85108,49.14299
Alchemist Specialty Carriers Inc,Trucking & Cartage,0,9697,190 St,V4N3M8,6045750983,6,GTC,Commercial/Industrial,2011,-122.69614,49.17877
Alder Auto Parts Ltd (66A Ave),Auto Parts,111,17665,66A Ave,V3S2A7,6045740488,5,CTC,Commercial/Industrial,2011,-122.73305,49.12343
Alder Auto Parts Ltd (96 Ave),Auto Parts,3,19414,96 Ave,V4N4C2,6048883722,11,GTC,Commercial/Industrial,2011,-122.68539,49.1769
Alder Dental,Dental Office,0,3278,King George Blvd,V4P1A5,6045312929,2,SSTC,Commercial/Industrial,2011,-122.81375,49.06202
Aldila Boutique,Retail - Ladies,30,2433,161A St,V3S0M6,6045354448,3,SSTC,Commercial/Industrial,2011,-122.77478,49.04708
Aldo Groupe,"Retail store, selling shoes and accessories",20,16081,24 Ave,V3S9H7,6045314505,1,SSTC,Commercial/Industrial,2011,-122.77713,49.04565
Alemi,Auto Body/Painting,3,11455,132A St,V3R7S2,7788633530,1,WTC,Commercial/Industrial,2011,-122.85519,49.21107
Aler Forest Products Ltd,Mfg. - Lumber,0,10950,125 St,V3V4Z2,6045882537,12,WTC,Commercial/Industrial,2011,-122.87577,49.2017
Alex's Auto Body Shop,"Auto Body Repair,Automobile Dealer/Rebuilder",1,11568,132A St,V3R7S2,6045801995,1,WTC,Commercial/Industrial,2011,-122.85489,49.2124
Alice Toys Corp,Retail - Toys,137,1711,152 St,V4A4N3,6045367707,1,SSTC,Commercial/Industrial,2011,-122.80132,49.03315
Align Health Professionals Inc,Professional Practioner - Chiropractor,0,10231,King George Blvd,V3T2W6,6045893828,2,SCC,Commercial/Industrial,2011,-122.84553,49.18852
Aliman Middle Eastern Food,Restaurant - No Alcohol,0,10700,King George Blvd,V3T2X3,6045848802,2,SCC,Commercial/Industrial,2011,-122.84515,49.19702
Aliman Middle Eastern Food,Grocery Store,0,10700,King George Blvd,V3T2X3,6045848802,1,SCC,Commercial/Industrial,2011,-122.84515,49.19702
Aling Mary's Filipino Store Video Rental & Fast Food Ltd,Caterer,3,8236,128 St,V3W4G2,6045990527,1,NTC,Commercial/Industrial,2011,-122.86785,49.1523
Alinx Computer Ltd,Retail Computers,0,7176,120 St,V3W3M8,6045925388,1,NTC,Commercial/Industrial,2011,-122.89022,49.13358
Ali's Libas House,Retail Clothing,107,8312,128 St,V3W4G2,6045079122,1,NTC,Commercial/Industrial,2011,-122.86786,49.15366
Alistair Black Special Services Inc,Auto Restoration,103,5438,176 St,V3S4C3,6045743033,1,CTC,Commercial/Industrial,2011,-122.73486,49.10102
Alistair McAndrew,Law Office,210,13711,72 Ave,V3W2P2,6045912288,1,NTC,Commercial/Industrial,2011,-122.84228,49.13365
Alkan Machining Limited,Manufacturer/Machine Shop,8,8307,124 St,V3W9G2,6045983730,1,NTC,Commercial/Industrial,2011,-122.87923,49.1541
Alkel Auto Sales Ltd,Auto Sales & Auto Body Shop,0,12592,110 Ave,V3V3J8,6045807752,1,WTC,Commercial/Industrial,2011,-122.87375,49.20252
All 4 Dance,Dance Studio,0,17720,57 Ave,V3S1H2,6045768161,1,CTC,Commercial/Industrial,2011,-122.7317,49.10589
All Access Screen Printing,Printer/Publisher,119,12827,76 Ave,V3W2V3,6045980996,1,NTC,Commercial/Industrial,2011,-122.86637,49.1411
All Canadian Management Ltd,Cheque Cashing Centre,0,13440,72 Ave,V3W2N8,6045723100,1,NTC,Commercial/Industrial,2011,-122.84978,49.13351
All Care Medical Centre,Pharmacy,101,12827,76 Ave,V3W2V3,6045900443,2,NTC,Commercial/Industrial,2011,-122.86637,49.1411
All Critters Animal Hospital,Veterinary Hospital,0,15910,Fraser Hwy,V4N0X8,6045976565,3,FTC,Commercial/Industrial,2011,-122.78178,49.1584
All Day All Nite,"Retail Convenience Store, Computer Time Rental",104,10252,135 St,V3T4C2,6045825535,1,SCC,Commercial/Industrial,2011,0,0
All Day All Nite,"Retail Convenience Store, Computer Time Rental",104,10252,135 St,V3T4C2,6045825535,1,SCC,Commercial/Industrial,2011,0,0
All In One School of Dance,Dance Studio,307,19292,60 Ave,V3S3M2,6045391119,1,CTC,Commercial/Industrial,2011,-122.68848,49.1112
All India Supermarket 2011 Ltd,Wholesale Grocery,0,12899,80 Ave,V3W0E6,6046715111,4,NTC,Commercial/Industrial,2011,-122.86515,49.14825
All Like Art & Frames,Custom Framing & Gifts,109,10224,152 St,V3R6N7,6045841329,1,GTC,Commercial/Industrial,2011,-122.80076,49.18825
All Make Auto Repairs Ltd,NO PAINTING - Automotive repair only,0,7835,132 St,V3W4M8,6045976666,3,NTC,Commercial/Industrial,2011,-122.85693,49.14531
All Mortgages Financial Inc,Mortgage Broker,11,15243,91 Ave,V3R9K2,6045816633,1,FTC,Commercial/Industrial,2011,-122.7998,49.16837
All Points Immigration Ltd,Immigration Consult.,206,8788,120 St,V3W3N6,6045979020,1,NTC,Commercial/Industrial,2011,-122.89022,49.16225
All Pro Mortgage Corp,Financial Planning/Consultant,204,8120,128 St,V3W1R1,6044889809,1,NTC,Commercial/Industrial,2011,-122.86784,49.15021
All Sale Akunamotata Trading Co,Freight forwarding,203,9200,120 St,V3V4B7,6045802888,1,WTC,Commercial/Industrial,2011,-122.89012,49.17047
All Seasons Roofing 2001 Ltd,Contractor - Roofing/Insulation,0,13281,Comber Way,V3W5V8,6045028683,1,NTC,Commercial/Industrial,2011,-122.85365,49.13664
All Seasons Waterproofing Installations Ltd,Contractor - Miscellaneous,127,7536,130 St,V3W1H8,6042902566,3,NTC,Commercial/Industrial,2011,-122.86169,49.13956
All Sport Bottling Company Ltd,Wholesale,101,8310,130 St,V3W8J9,6049301313,1,NTC,Commercial/Industrial,2011,-122.86215,49.15354
All Star Blinds Cleaning Sales & Installation Repa,Blind Cleaning,6,13370,116 Ave,V3R0R8,6045801800,1,WTC,Commercial/Industrial,2011,0,0
All Stars Kitchen Cabinets,Mfg/Machine Shop - Kitchen Cabinets,2,12335,83A Ave,V3W9Y7,7789893572,1,NTC,Commercial/Industrial,2011,-122.88034,49.15473
All Trans & The Transmission Man,Transmission Repair,0,2526,King George Blvd,V4P1H5,6045382344,3,SSTC,Commercial/Industrial,2011,-122.79627,49.04792
All Weather Products Ltd,Whlse. - roofing & building Material,0,12510,82 Ave,V3W3E9,6045859955,12,NTC,Commercial/Industrial,2011,-122.87552,49.15188
All Wood Quality Kitchens Ltd,Cabinets,103,8377,128 St,V3W4G1,6045995333,8,NTC,Commercial/Industrial,2011,-122.86813,49.15481
Allan Kube Associates,Drafting/Design Serv.,204,15350,34 Ave,V3S0X7,6045358790,4,SSTC,Commercial/Industrial,2011,-122.79711,49.06364
Alldec Trading Ltd,Wholesale,108,19329,Enterprise Way,V3S6J8,6045343688,1,CTC,Commercial/Industrial,2011,-122.6874,49.109
Alldritt Development Ltd,Property Management,300,2055,152 St,V4A4N7,6045365959,4,SSTC,Commercial/Industrial,2011,-122.80133,49.0394
Allegra,Printing & Photocopying,101,7889,132 St,V3W4N2,6045904405,5,NTC,Commercial/Industrial,2011,-122.85694,49.14633
Allegra Print & Imaging,Printer,3,19585,96 Ave,V4N4C5,6048810220,5,GTC,Commercial/Industrial,2011,-122.67981,49.17707
Allflo Technologies Inc,Hydraulic Repair,0,12630,82 Ave,V3W3G1,6045435272,1,NTC,Commercial/Industrial,2011,-122.87196,49.15181
Alliance Clinic Ltd,Professional Practitioner-Medical,0,10085,Whalley Blvd,V3T4G1,6045825826,3,SCC,Commercial/Industrial,2011,-122.84337,49.18582
Alliance Principle Ingredients Corporation,Wholesale - Pharmaceutical Goods,101,5712,192 St,V3S2V7,6045761130,5,CTC,Commercial/Industrial,2011,-122.69101,49.10658
Alliance Truss Ltd,Wooden Roof Trusses,205,18515,53 Ave,V3S7A4,6045743525,18,CTC,Commercial/Industrial,2011,-122.70985,49.09915
Allied Auto Repair Ltd,Automotive Repair Service,5,7711,128 St,V3W4E6,6045996656,1,NTC,Commercial/Industrial,2011,-122.86807,49.14332
Allied Blower & Sheet Metal Ltd,Mfg. - Pneumatic Conveying & Dust Collection Systems; Steel Fabrication,0,12224,103A Ave,V3V3G9,6049307000,25,WTC,Commercial/Industrial,2011,-122.88345,49.19053
Allied Healthcare Training Inc,Career Counselling,204,9648,128 St,V3T2X9,6049516644,13,SCC,Commercial/Industrial,2011,-122.86786,49.17774
Allied Insurance Servcies Inc,Insurance Agent,105,12025,Nordel Way,V3W1W1,6045964588,1,NTC,Commercial/Industrial,2011,-122.88929,49.16211
Allied Insurance Services Inc,Insurance Agent,103,15988,Fraser Hwy,V4N0X8,6045723311,2,FTC,Commercial/Industrial,2011,-122.77933,49.15744
Allied Insurance Services Inc,Insurance Agent,0,10235,King George Blvd,V3T2W6,6045828699,4,SCC,Commercial/Industrial,2011,-122.84553,49.18861
Allied Insurance Services Inc (138 St),Insurance Agent,121,7135,138 St,V3W7T9,6045729292,1,NTC,Commercial/Industrial,2011,-122.83879,49.13214
Allied Insurance Services Inc (152 St),Insurance Agent,60,10330,152 St,V3R4G8,6045828644,1,GTC,Commercial/Industrial,2011,-122.80075,49.19019
Allnorth Consultants Limited,Engineering Serv.,312,7485,130 St,V3W1H8,6045727722,1,NTC,Commercial/Industrial,2011,-122.86196,49.13923
Allondale Animal Hospital Ltd,"Veterinarian, Small Animals",0,14715,108 Ave,V3R1V9,6045810491,7,GTC,Commercial/Industrial,2011,-122.81462,49.19883
Allstar Collision Services Ltd,Auto Body Repair & Painting,0,19574,60 Ave,V3S3S7,6045392828,5,CTC,Commercial/Industrial,2011,-122.68097,49.11115
Allstar Collision Services Sales & Leasing Ltd,Auto Sales & Leasing,0,19574,60 Ave,V3S3S7,0,1,CTC,Commercial/Industrial,2011,-122.68097,49.11115
Almari Fashion Gallery Inc,Retail Merchant,152,8120,128 St,V3W1R1,6043078609,1,NTC,Commercial/Industrial,2011,-122.86784,49.15021
Alongside Holdings Corporation,Professional Practitioner-Engineer,203,2343,156 St,V4A4V5,6045605644,1,SSTC,Commercial/Industrial,2011,-122.79034,49.0447
Alpha Computers,Computer Manufacturing & Sales,4,2336,King George Blvd,V4A5A5,6048666901,1,SSTC,Commercial/Industrial,2011,-122.79198,49.04446
Alpha Mortgage House Corp,Financial Planning Consult.,202,12830,80 Ave,V3W3A8,6045019837,1,NTC,Commercial/Industrial,2011,-122.86703,49.14807
Alpine Autobody Ltd,Auto Body Repair,2,8564,123 St,V3W3V6,6045901786,1,NTC,Commercial/Industrial,2011,-122.88216,49.15899
Alpine Non-Ferrous Foundry of Canada Ltd,Mfg. - Aluminum & Bronze Castings,0,8657,132 St,V3W4P1,6045968080,8,NTC,Commercial/Industrial,2011,-122.85704,49.15969
Alpi's Brakes & Alignment,Automotive Repair,0,11052,124 St,V3V4V1,6045812067,1,WTC,Commercial/Industrial,2011,-122.8785,49.20375
Alpi's European Used Auto Parts,Automobile Wrecking,0,10603,Scott Rd,V3V4G5,6045831686,1,WTC,Commercial/Industrial,2011,-122.88742,49.19515
Al's Smoke Shop,Retail Sales - Convenience Store,0,13642,105A Ave,V3T2B3,6045846618,1,SCC,Commercial/Industrial,2011,-122.84397,49.19435
AltaVision Plus,Administration Office,309,15252,32 Ave,V3S0R7,6045419475,3,SSTC,Commercial/Industrial,2011,-122.80002,49.06149
Altec Industries Ltd,Auto Repair Serv.,0,12352,84 Ave,V3W0J5,6045970355,2,NTC,Commercial/Industrial,2011,-122.88019,49.15565
Alternative Cartage Inc,Warehousing & distribution,305,17665,66A Ave,V3S2A7,6045799980,7,CTC,Commercial/Industrial,2011,-122.73305,49.12343
Alternative Processing Systems Inc,Wrhse.,104,18935,96 Ave,V4N3P3,6044550665,1,GTC,Commercial/Industrial,2011,-122.69788,49.17709
Alumico Building Products Ltd,Manufactuer - Aluminum Doors & Screens,0,10798,Timberland Rd,V3V3T5,6045905591,5,WTC,Commercial/Industrial,2011,-122.89457,49.19839
AM Furniture Finishing Ltd,Furniture Finishing,304,8352,130 St,V3W8J9,6045943999,1,NTC,Commercial/Industrial,2011,-122.86215,49.15438
Amanda K Bohgan Counselling Services,Counselling Service,105,15153,56 Avenue,V3S9A5,6048259648,1,NTC,Commercial/Industrial,2011,-122.80428,49.10454
Amar Trucking Ltd,Trucking Dispatch Office,0,12413,82 Ave,V3W3E8,6045729000,15,NTC,Commercial/Industrial,2011,-122.87836,49.15212
Amari Medical Practice,Professional Practitioner-Medical,102,13805,104 Ave,V3T1W7,6045942714,1,SCC,Commercial/Industrial,2011,-122.83959,49.19164
Amazing Tutors Inc #2,Tutoring,0,9364,120 St,V3V4B9,6047654099,1,WTC,Commercial/Industrial,2011,-122.89007,49.1733
Amazing Tutors Inc #3,Tutoring,111,9547,152 St,V3R5Y5,6047654099,1,FTC,Commercial/Industrial,2011,-122.8012,49.17591
Amazon Metal Co Ltd,Wholesale,302,7889,132 St,V3W4N2,6045978890,2,NTC,Commercial/Industrial,2011,-122.85694,49.14633
Ambassador Brake & OK Tire,Auto Repair,0,15167,Fraser Hwy,V3R3P2,6045899336,4,FTC,Commercial/Industrial,2011,-122.80224,49.16654
Ambience Salon Ltd,Hair Salon,108,19475,Fraser Hwy,V3S6K7,6045332772,1,CTC,Commercial/Industrial,2011,-122.6828,49.11534
Ambiente Gifts Decor & Design,Retail - Home DÚcor & Gift Items,20,16041,24 Ave,V3S9H7,6049522053,1,SSTC,Commercial/Industrial,2011,-122.77811,49.04564
Ambros Constructors Ltd,Contractor - General,204,15955,Fraser Hwy,V4N0Y3,6045911450,1,FTC,Commercial/Industrial,2011,-122.78023,49.158
Amcco Carrier Ltd,"Office use 
Trucks are parked at 5452 176 St (IL)",102,17750,56 Avenue,V3S1K4,7785711450,3,CTC,Commercial/Industrial,2011,-122.73088,49.10408
American Eagle Outfitters (Guildford Town Centre),Retail Clothing,0,2577,Guildford Town Centre,V3R7C1,0,23,GTC,Commercial/Industrial,2011,0,0
American Windows & Glass Ltd,Glass Installation Cont.,1,12988,84 Ave,V3W0K6,6045941877,3,NTC,Commercial/Industrial,2011,-122.86267,49.1553
Ames Metal Fabricators 82 Ltd,Contractor - Sheet Metal,103,19045,54 Ave,V3S4R1,6045751562,12,CTC,Commercial/Industrial,2011,-122.69491,49.10087
Amex Auto Sales Ltd,Auto sales accessory to auto body use,15,7823,132 St,V3W4M8,6045975128,1,NTC,Commercial/Industrial,2011,-122.85693,49.14505
Amex Immigration Canada Ltd,Immigration Consultancy & Commissioner For Taking Oaths,397,8148,128 St,V3W1R1,6047259091,1,NTC,Commercial/Industrial,2011,-122.86784,49.15071
Amex Kitchen Art Inc,Kitchen cabinets,305,7728,128 St,V3W1L3,7788929077,1,NTC,Commercial/Industrial,2011,-122.86779,49.14358
Amix Recycling,Scrap metal recycling,0,11698,140 St,V3R3G8,6045800251,15,WTC,Commercial/Industrial,2011,0,0
Amix Recycling,Salvage yard - scrap metal,0,12301,Musqueam Dr,V3V3T2,6045800251,220,WTC,Commercial/Industrial,2011,0,0
Ammundsen Home Care & Wellness Store,Sale of Home Health Care Products.,5,13025,84 Ave,V3W1B3,6045218899,1,NTC,Commercial/Industrial,2011,-122.86151,49.15548
Amos Ferguson Manor,Seniors Housing Apartment Rentals,101,8243,152 St,V3S3M6,6045901522,2,FTC,Commercial/Industrial,2011,-122.80146,49.15278
Ample Consultants Inc,Employment Agency/Recruiting Service,209,12830,80 Ave,V3W3A8,6044849816,1,NTC,Commercial/Industrial,2011,-122.86703,49.14807
Amrit Deol,Financial Planning/Consultant,204,8388,128 St,V3W4G2,6048080607,1,NTC,Commercial/Industrial,2011,-122.86786,49.15503
Amritech Computer Systems Ltd,"Retail Computers, Etc.",7,8430,128 St,V3W4G3,6045729955,2,NTC,Commercial/Industrial,2011,-122.86786,49.156
Amritech Computer Systems Ltd,Roger's Wireless Store,701,6476,176 St,V3S4G3,6045829999,1,CTC,Commercial/Industrial,2011,-122.73482,49.11999
Amro Enterprise Ltd,Film Producer,203,13049,76 Ave,V3W2V7,6045919200,1,NTC,Commercial/Industrial,2011,-122.86052,49.14105
Anacare Pet Services,Kennel,0,16238,56 Avenue,V3S2J7,6045763959,1,CTC,Commercial/Industrial,2011,-122.77237,49.10437
Anastasia Restaurant,Dining Lounge,0,13486,72 Ave,V3W2N8,6045942322,22,NTC,Commercial/Industrial,2011,-122.84818,49.13349
Andaaz Wedding Centre,Manufacturer/Machine Shop,107,8363,128 St,V3W4G1,6045901175,1,NTC,Commercial/Industrial,2011,-122.86813,49.15456
Anderson Dr David K,Medical Office,15,15300,105 Ave,V3R6A7,6045831222,1,GTC,Commercial/Industrial,2011,-122.79801,49.19323
Andreas Development Ltd,General Cont,107,17957,55 Ave,V3S6C4,6045761598,4,CTC,Commercial/Industrial,2011,-122.72485,49.10238
Andreou Inc Dr C,Medical Office,302,13798,94A Ave,V3V1N1,6045831789,1,WTC,Commercial/Industrial,2011,-122.84015,49.17462
Andrew Sheret Ltd,"Whlse. Plumbing, Heating, Air Conditioning & Industrial Supplies",0,19558,56 Ave,V3S6K4,6045347421,43,CTC,Commercial/Industrial,2011,-122.68218,49.10433
Andy Lal's Auto Body & Painting Ltd,Auto Body Repair & Painting,0,10743,124 St,V3V4T5,6045800100,1,WTC,Commercial/Industrial,2011,-122.87885,49.19756
Andy Sorensen Autobody & Frame Ltd,Autobody Repair Shop,0,14771,64 Ave,V3S1X6,6045908180,9,NTC,Commercial/Industrial,2011,-122.81308,49.11922
Angel Restoration Inc,Restoration,2,9470,195 St,V4N4G2,6042217575,80,GTC,Commercial/Industrial,2011,-122.68216,49.17479
Angela Fashions,Ladies fashions and accessories,0,2120,Guildford Town Centre,V3R7B9,6045883238,1,GTC,Commercial/Industrial,2011,0,0
Angel's Kisses,"Mens clothing, formal wear and children's formal wear",0,2635,Guildford Town Centre,V3R7C1,6049570144,2,GTC,Commercial/Industrial,2011,0,0
Anglemont Financial Services Ltd,Accountant,301,1688,152 St,V4A4N2,6045382006,1,SSTC,Commercial/Industrial,2011,-122.80104,49.03271
Anil Auluck & Co,Accountant,233,8138,128 St,V3W1R1,6045962645,1,NTC,Commercial/Industrial,2011,-122.86784,49.15053
Animal Haven Grooming,Animal Grooming,110,14620,64 Ave,V3S1X7,6045970415,1,NTC,Commercial/Industrial,2011,-122.81709,49.11904
Anipet Animal Supplies Inc,Wholesale - Pet Supplies,0,19038,24 Ave,V3S3S9,6045363367,20,SSTC,Commercial/Industrial,2011,-122.69562,49.04558
Ankenman Associates Architects Inc,Professional Practitioner-Architect,200,12321,Beecher St,V4A3A7,6045361600,14,SSTC,Commercial/Industrial,2011,-122.88048,49.05321
Ann Harada Physiotherapy,Physiotherapy - Mobile,203,13569,76 Ave,V3W2W3,6045929119,1,NTC,Commercial/Industrial,2011,-122.84599,49.14093
Ann Louise Jewellers Ltd,Retail Jewelry,0,2546,Guildford Town Centre,V3R7C1,6045894111,6,GTC,Commercial/Industrial,2011,0,0
Anna Kristina Boutique,Retail - Ladies,119,1711,152 St,V4A4N3,6045368873,3,SSTC,Commercial/Industrial,2011,-122.80132,49.03315
Anna Marie's Cafe,Caterer,102,19329,Enterprise Way,V3S6J8,6045342006,1,CTC,Commercial/Industrial,2011,-122.6874,49.109
Anna Zajaczkowska-Kielska Inc,Pediatric Medical Office,0,15252,32 Ave,V3S0R7,6045386505,1,SSTC,Commercial/Industrial,2011,-122.80002,49.06149
Anna's Goldfish,Portable Food Vendor,1,15357,104 Ave,V3R1N5,6047853380,1,GTC,Commercial/Industrial,2011,-122.79657,49.19161
Annu Pratap-Kliem Massage Therapy,Massage Therapy (RMT),108,2055,152 St,V4A4N7,6045313631,1,SSTC,Commercial/Industrial,2011,-122.80133,49.0394
Antidote Pharmacy #3 The,Retail,104,8140,120 St,V3W3N3,7785653411,1,NTC,Commercial/Industrial,2011,-122.89023,49.15114
Antony and Sons,Retail - Produce,202,14016,32 Ave,V4P2J2,6045388289,1,SSTC,Commercial/Industrial,2011,-122.83395,49.06016
Anu Gill   RMT,Registered Massage Therapy,126,15850,26 Ave,V3S2N6,6045605656,1,SSTC,Commercial/Industrial,2011,-122.78327,49.0491
Anytime Fitness,24 Hour Co-Ed Private Fitness Gym,101,18655,Fraser Hwy,V3S7Y3,6045951668,1,CTC,Commercial/Industrial,2011,-122.70531,49.12542
Anytime Maintenance Inc,Janitorial & Building Maintenance,201,13301,72 Ave,V3W2N5,6047654099,1,NTC,Commercial/Industrial,2011,-122.85446,49.13377
Apex Building Sciences Inc,Professional Practitioner-Engineer,233,18525,53 Ave,V3S7A4,6045758220,1,CTC,Commercial/Industrial,2011,-122.7096,49.09912
Apex Communications Inc (13734 - 104 Ave),"Retail Cellular Phones, Alarm Installation Cont.",0,13734,104 Ave,V3T1W5,6045833300,136,SCC,Commercial/Industrial,2011,-122.8417,49.19148
Apex Communications Inc (13734 - 104 Ave),"Retail Cellular Phones, Alarm Installation Cont.",0,13734,104 Ave,V3T1W5,6045833300,136,SCC,Commercial/Industrial,2011,-122.8417,49.19148
Apex Design Group Inc,Professional Practitioner-Architect,157,8120,128 St,V3W1R1,6045438281,1,NTC,Commercial/Industrial,2011,-122.86784,49.15021
Apex Fire Protection Ltd,Sprinkler Contractor,1,19080,96 Ave,V4N3R3,6048884041,1,GTC,Commercial/Industrial,2011,-122.69379,49.17691
Apex Granite & Tile Inc,Tile & Marble Cont.,108,9706,188 St,V4N3M2,6048829284,5,GTC,Commercial/Industrial,2011,-122.70115,49.17886
Apex Kitchen Concepts Ltd,Kitchen Cabinets,0,12355,83A Ave,V3W9Y7,6045720727,3,NTC,Commercial/Industrial,2011,-122.87997,49.15472
Apex Universal Metalworks Ltd,Welding - Fabricating,9,8125,130 St,V3W7X4,6045970736,1,NTC,Commercial/Industrial,2011,-122.86241,49.15026
Aplin & Martin Consultants Ltd,Professional Practitioner-Engineer,201,12448,82 Ave,V3W3E9,6045979058,60,NTC,Commercial/Industrial,2011,-122.87736,49.15192
Apna Professional Driving School Ltd,Driving School,109,12815,85 Ave,V3W0K8,6045906330,8,NTC,Commercial/Industrial,2011,-122.86755,49.15752
Apna Punjab Grocery and Video Ltd,"Food,Video",0,8077,King George Blvd,V3W5B4,6043185410,3,NTC,Commercial/Industrial,2011,-122.84584,49.14959
Apna Rishi Law Office,Professional Practitioner-Lawyer,233,8138,128 St,V3W1R1,6045056454,1,NTC,Commercial/Industrial,2011,-122.86784,49.15053
Apollo Animal Hospital & Grooming,Professional Practitioner-Veterinarian,0,8077,King George Blvd,V3W5B4,6045011111,1,NTC,Commercial/Industrial,2011,-122.84584,49.14959
Apple Dental Group,Dental Office,203,13766,72 Ave,V3W2P4,6045902522,6,NTC,Commercial/Industrial,2011,-122.84007,49.13349
Apple Prescription Centre,Retail Merchant - 0 to 2 Employees,0,5624,177B St,V3S4J1,6045761373,3,CTC,Commercial/Industrial,2011,-122.73014,49.10458
Applewood Kia,"Auto Dealer, Auto Repair",0,16287,Fraser Hwy,V4N0G1,6046353010,1,FTC,Commercial/Industrial,2011,-122.77091,49.15437
Applewood Kia,"Auto Dealer, Auto Repair",0,16287,Fraser Hwy,V4N0G1,6046353010,1,FTC,Commercial/Industrial,2011,-122.77091,49.15437
Applied Science Technologists & Technicians of BC,Non Profit - Professional Association,0,10767,148 St,V3R0S4,6045852788,14,GTC,Commercial/Industrial,2011,-122.81261,49.19813
A-Prime Autowrecking Ltd,Auto Wrecking,0,10701,Scott Rd,V3V4G5,6045808980,3,WTC,Commercial/Industrial,2011,-122.88513,49.19705
Apsra Art & Bangles Ltd,Manufacturing Ladies Suits,102,8334,128 St,V3W4G2,6046136807,1,NTC,Commercial/Industrial,2011,-122.86786,49.15406
Apt Industries Ltd,"Blacksmith, Welding & Steel Fabricating",0,12361,Industrial Rd,V3V3S4,6045803605,3,WTC,Commercial/Industrial,2011,-122.87993,49.21126
Aqua Ibiza Enterprises Ltd,"Whlse. Water Bottling, Computer Repairs",305,17750,65A Ave,V3S5N4,7785497355,2,CTC,Commercial/Industrial,2011,-122.7307,49.12107
Aqua Ibiza Enterprises Ltd,"Whlse. Water Bottling, Computer Repairs",305,17750,65A Ave,V3S5N4,7785497355,2,CTC,Commercial/Industrial,2011,-122.7307,49.12107
Aqua Wash Equipment Ltd,Mfg. - Car Washing Equip.,312,7889,132 St,V3W4N2,6045949274,2,NTC,Commercial/Industrial,2011,-122.85694,49.14633
Aqualine Vinyl Sales Ltd,Whlse. Vinyl,0,17514,55B Ave,V3S7G6,6045740222,3,CTC,Commercial/Industrial,2011,-122.73714,49.10306
Aqua-Pak Styro Containers Ltd,Mfg. - Styrofoam Containers,0,7398,132 St,V3W4M7,6045902886,20,NTC,Commercial/Industrial,2011,-122.85659,49.13702
Aquarius Dental,Professional Practitioner-Dentist,105,19390,68 Ave,V4N6A9,6042105050,2,CTC,Commercial/Industrial,2011,-122.68564,49.12627
Aquarius Rv Mfg Co,Manufacturer - R V Services & Repairs,27,8236,128 St,V3W4G2,6045841022,1,NTC,Commercial/Industrial,2011,-122.86785,49.1523
AquaSource Products Inc,Business Office,304,1688,152 St,V4A4N2,6045415467,1,SSTC,Commercial/Industrial,2011,-122.80104,49.03271
Aquaticus Water Works Inc,Take Out - beverages,102,7227,128 St,V3W4E4,6045906153,1,NTC,Commercial/Industrial,2011,-122.86798,49.13444
Aquatrans Distributors Inc,Transportation Logistics,204,19099,25 Ave,V3S3V2,6045758792,8,SSTC,Commercial/Industrial,2011,-122.69479,49.04758
Aquawave Supplies Ltd,Whlse. Bath & Plumbing Supplies,202,13140,80 Ave,V3W3B2,6042319592,4,NTC,Commercial/Industrial,2011,-122.85849,49.14808
Aquazone Water N Vita Inc,Retail Purified Water,103,15953,Fraser Hwy,V4N0Y3,6044849458,1,FTC,Commercial/Industrial,2011,-122.78029,49.15803
Aquiform Distributors Ltd,Swimming pool & spa  products,0,19296,25 Ave,V3S3X1,6045410500,24,SSTC,Commercial/Industrial,2011,-122.68909,49.04737
Arbor Commercial Real Estate Services Inc,Real Estate,100,7164,120 St,V3W3M8,6045928335,10,NTC,Commercial/Industrial,2011,-122.89022,49.13337
Arcadia Transmission,Automotive Repair Service,0,12750,King George Blvd,V3V3K5,6045915253,2,WTC,Commercial/Industrial,2011,-122.86908,49.20617
Arco Auto Electric Ltd,"Alternator, Starter, Generator, & Regulator",21,7711,128 St,V3W4E6,6045994441,1,NTC,Commercial/Industrial,2011,-122.86807,49.14332
Arcom Power Equipment,Small Engine Repair,8,19585,56 Ave,V3S6K3,6045330081,1,CTC,Commercial/Industrial,2011,-122.68003,49.10449
Arctic Glacier Inc,Mfg. - Ice Products,0,9679,186 St,V4N3N8,6048884311,14,GTC,Commercial/Industrial,2011,-122.7078,49.17831
Arcus Community Resources Ltd,Recreation Facility,0,12388,Pattullo Pl,V3V8C3,6044669842,1,WTC,Commercial/Industrial,2011,-122.8795,49.20238
Ardene,Accessories,2163,10153,King George Blvd,V3T2W1,6043834442,3,SCC,Commercial/Industrial,2011,-122.84555,49.18696
Ardene Holdings Inc,Retail,40,2443,161A St,V3S0M6,7787853865,3,SSTC,Commercial/Industrial,2011,-122.7748,49.04685
Argen Canada,Dental alloy distribution,107,5668,192 St,V3S2V7,6045759669,9,CTC,Commercial/Industrial,2011,-122.691,49.10585
Argosy Pools Ltd,Gas Contractor,3,12331,84 Ave,V3W3G8,6045967778,1,NTC,Commercial/Industrial,2011,-122.88122,49.15586
Arian Soheili,General Cont.,208,8501,162 St,V4W1B2,6045725300,1,FTC,Commercial/Industrial,2011,-122.77345,49.15731
Ariana Grocery,Retail - Groceries,0,10729,King George Blvd,V3T2X6,6045882010,1,SCC,Commercial/Industrial,2011,-122.84551,49.19757
Arirang Restuarant,Food Primary-Class B Dining Room,0,14916,104 Ave,V3R1M7,6048520020,1,GTC,Commercial/Industrial,2011,-122.80874,49.1914
Arktos Developments Ltd,Mfg. - Amphibious Rescue Vehicles,0,12634,82 Ave,V3W3G1,6045994989,6,NTC,Commercial/Industrial,2011,-122.87185,49.1518
Armadio Kitchen & Bath Ltd,Kitchen & Bathroom Cabinets,109,15272,Croydon Dr,V3S0Z5,0,2,SSTC,Commercial/Industrial,2011,-122.79881,49.06002
Armor Durashield Vinyl Decking Ltd,Whlse. Sundeck Waterproofing,304,9785,192 St,V4N4C7,6048828783,1,GTC,Commercial/Industrial,2011,-122.69044,49.18052
Armstrong Guitar Works Inc,Manufacturer/Machine Shop,7,18812,96 Ave,V4N3R1,6042205150,1,GTC,Commercial/Industrial,2011,-122.70097,49.17691
Arnold & Sons Roofing Ltd,Roofing & Gutter Installation Contractor,112,13302,76 Ave,V3W2W1,6045990821,6,NTC,Commercial/Industrial,2011,-122.85393,49.14082
Arrow Leadership International Ministries,Non Profit,0,19232,Enterprise Way,V3S6J9,6045765613,11,CTC,Commercial/Industrial,2011,-122.68454,49.11098
Arsara Diesel Truck Repairs Ltd,Diesel Engine Repairs,0,12085,103A Ave,V3V3G7,6049997266,1,WTC,Commercial/Industrial,2011,-122.88761,49.19069
Art Knapp Plantland (King George Blvd),Retail - Nursery & Garden Products,0,4391,King George Blvd,V4P2J9,6045969201,32,SSTC,Commercial/Industrial,2011,-122.82075,49.08178
Artek Vancouver,General Cont.,0,12140,103A Ave,V3V3G8,6045842131,33,WTC,Commercial/Industrial,2011,-122.88584,49.19052
Artis Realty,Real Estate Serv.,0,14410,30 Ave,V4P1P9,6045381228,1,SSTC,Commercial/Industrial,2011,-122.82302,49.05661
Artistic Edge Dance Academy Ltd,Dance School,204,10422,168 St,V3S7C9,6048090138,1,GTC,Commercial/Industrial,2011,-122.75634,49.19196
Artistic Kitchen Cabinets,Mfg.,0,7780,135A St,V3W9A7,6045994229,1,NTC,Commercial/Industrial,2011,-122.84724,49.14413
Art's Nursery,Nursery,0,8940,192 St,V4N3W8,6048821201,8,GTC,Commercial/Industrial,2011,-122.69043,49.16529
Ash Services Ltd,General Cont. - Restoration,106,12885,76 Ave,V3W1E6,6047884082,1,NTC,Commercial/Industrial,2011,-122.86491,49.14109
Asha Counselling Services,Counselling Service,202,15388,24 Ave,V4A2J2,6049081972,1,SSTC,Commercial/Industrial,2011,-122.79602,49.04551
Ashiana Restaurant & Sweet Shop (2011) Ltd,"Full Licenced Restaurant,Sweet Shop",200,8072,120 St,V3W3N3,6045935458,5,NTC,Commercial/Industrial,2011,-122.89022,49.14994
Asian Concepts Franchising Corporation,Administration Office,216,5455,152 St,V3S5A5,7785714200,1,NTC,Commercial/Industrial,2011,-122.8012,49.10185
Asian Noodle Island Ltd,Restaurant,302,15988,Fraser Hwy,V4N0X8,6045916528,1,FTC,Commercial/Industrial,2011,-122.77933,49.15744
Asian Rug Importers Inc,Rugs,0,2406,King George Blvd,V4P1H5,6045355781,1,SSTC,Commercial/Industrial,2011,-122.79368,49.04583
Asian Spice,Food Primary-Class B Dining Room,0,9436,120 St,V3V4B9,6045828388,1,WTC,Commercial/Industrial,2011,-122.89006,49.17444
Asian Star Communications Inc,Newspaper Publishing,202,7028,120 St,V3W3M8,6045915423,4,NTC,Commercial/Industrial,2011,-122.89022,49.13093
Asian Video Entertainment Inc.,Rental - Cassettes & CD's,111,7500,120 St,V3W3N1,6045903666,1,NTC,Commercial/Industrial,2011,-122.89022,49.13907
Asian Wedding & Decoration,Retail permitted only as part of the primary manufacturing or wholesale use.,110,8334,128 St,V3W4G2,6046909994,1,NTC,Commercial/Industrial,2011,-122.86786,49.15406
Aspen Developments Ltd,Land Development,200,12219,Beecher St,V4A3A2,6045381804,1,SSTC,Commercial/Industrial,2011,-122.88341,49.0526
Aspen Medical Clinic,Medical Office,101,2099,152 St,V4A4N7,6045314141,6,SSTC,Commercial/Industrial,2011,-122.80133,49.04016
Aspire Business Services,Bookkeeping,288,12899,76 Ave,V3W1E6,6045437612,1,NTC,Commercial/Industrial,2011,-122.86467,49.14109
Assante Capital Management Ltd,Tax & Financial Planning,101,17678,58A Ave,V3S8V7,6045744767,1,CTC,Commercial/Industrial,2011,-122.73288,49.1086
Assante Wealth Management,Financial Planning/Consultant,210,15252,32 Ave,V3S0R7,6045411941,1,SSTC,Commercial/Industrial,2011,-122.80002,49.06149
Assiniboine Lights & Landscape,Landscaping/Excavating Cont.,201,19425,No 10 (Langley Bypass) Hwy,V3S6K1,6045327425,1,CTC,Commercial/Industrial,2011,0,0
Assist 2 Sell New Options Realty Ltd,Real Estate,202,15388,24 Ave,V4A2J2,6045424444,7,SSTC,Commercial/Industrial,2011,-122.79602,49.04551
Associated Health Systems Inc,Distributor of Medical Supplies,41035,8145,130 St,V3W7X4,6042768012,8,NTC,Commercial/Industrial,2011,-122.86241,49.15058
Astra Granite Ltd,Whlse. Granite,0,12654,82 Ave,V3W3G1,6043130653,1,NTC,Commercial/Industrial,2011,-122.87125,49.15179
Astro Signs,Mfg. & Install - Signs,229,12448,82 Ave,V3W3E9,6045819898,1,NTC,Commercial/Industrial,2011,-122.87736,49.15192
Astrographic Industries Ltd,"Mfg. - License Plates & Signs, Whlse. Traffic Control Products,Contracted road marking application,Wholesale",0,7541,134A St,V3W7B3,6045961731,34,NTC,Commercial/Industrial,2011,-122.85037,49.13986
At Restawhile B & B,Bed & Breakfast,0,15775,102B Ave,V4N2M1,6045899679,1,GTC,Commercial/Industrial,2011,-122.78491,49.1894
Atkinson & Terry Insurance Brokers,Insurance Agency,0,12873,16 Ave,V4A1N5,6045312938,2,,Commercial/Industrial,2011,-122.86594,49.03138
Atkinson & Terry Insurance Brokers,Insurance Agency,330,7488,King George Blvd,V3W0H9,6045961717,3,NTC,Commercial/Industrial,2011,-122.84548,49.1388
Atkinson & Terry Insurance Brokers,Insurance Agent,800,3041,152 St,V4P3K1,6045316901,3,SSTC,Commercial/Industrial,2011,-122.80131,49.05725
Atkinson & Terry Insurance Brokers (10612 King George),Insurance Agency,0,10612,King George Blvd,V3T2X3,6045821221,4,SCC,Commercial/Industrial,2011,-122.84517,49.19547
Atkinson & Terry Insurance Brokers (15910 Fraser),Insurance Agency,103,15910,Fraser Hwy,V4N0X8,6045012669,2,FTC,Commercial/Industrial,2011,-122.78178,49.1584
Atkinson & Terry Insurance Brokers (8902 - 152 St),Insurance Agency,0,8902,152 St,V3R4E4,6045815566,4,FTC,Commercial/Industrial,2011,-122.80132,49.16438
Atlantic Animal Hospital,Veterinary Office,3,9989,152 St,V3R4G5,6045846677,1,GTC,Commercial/Industrial,2011,-122.80106,49.18399
Atlas Cold Storage Canada Limited,Warehouse - Food Products,0,19572,94 Ave,V4N4E5,6048829098,25,GTC,Commercial/Industrial,2011,-122.68067,49.17348
Atlas Custom Cabinets Ltd,Kitchen Cabinets,41035,14722,64 Ave,V3S1X7,6045941199,1,NTC,Commercial/Industrial,2011,-122.81437,49.11904
Atlas Machines Ltd,Mfg. - Machine Shop,303,5327,192 St,V3S8E5,6045749577,3,CTC,Commercial/Industrial,2011,-122.69135,49.09963
Atlas Trailer Coach Products Ltd,Whlse. RV Parts & Accessories,0,5517,Production Blvd,V3S8P6,6045304002,1,CTC,Commercial/Industrial,2011,-122.68191,49.10256
Atlas Transmission,Automotive Repair Service,0,2101,152 St,V4A4N7,6045311211,1,SSTC,Commercial/Industrial,2011,-122.80133,49.04019
Atomic Themeworks Manufacturing Inc,Manufacturer/Machine Shop,101,13163,76 Ave,V3W2V7,6045071260,1,NTC,Commercial/Industrial,2011,-122.85778,49.14103
Atwal's Insurance & Financial Centre Inc,Insurance Agent,0,12829,96 Ave,V3V6V9,6049304141,4,SCC,Commercial/Industrial,2011,-122.86692,49.17725
Atwater Insurance,Insurance Agency,0,1711,152 St,V4A4N3,6045316631,6,SSTC,Commercial/Industrial,2011,-122.80132,49.03315
Augusta Motor Group Inc,Automobile Dealer/Rebuilder,0,3601,King George Blvd,V4P1B6,6043779943,1,SSTC,Commercial/Industrial,2011,-122.82085,49.06747
Aulakh Inc Dr P S,Medical Office,101,8181,120A St,V3W3P2,6045996909,3,NTC,Commercial/Industrial,2011,-122.88865,49.15181
Aura Office Environments,Wholesale office furniture - warehouse & assembly,102,17974,55 Ave,V3S6C8,6043174009,9,CTC,Commercial/Industrial,2011,-122.72446,49.1022
Aureflam Canada Inc,Administration Office,206,12830,80 Ave,V3W3A8,6043777161,2,NTC,Commercial/Industrial,2011,-122.86703,49.14807
Aurostar Education Inc,Chinese language school operating after school,205,8501,162 St,V4N1B2,6042889011,1,FTC,Commercial/Industrial,2011,-122.77345,49.15731
Austin Custom Kitchens Inc,Retail - Kitchen Design & Sales,0,2406,King George Blvd,V4P1H5,6045429906,1,SSTC,Commercial/Industrial,2011,-122.79368,49.04583
Authentic Dental Laboratory Ltd,Dental Lab,209,2383,King George Blvd,V4A5A4,7788984577,1,SSTC,Commercial/Industrial,2011,-122.79321,49.04517
Authentic Profiles & Woodworks Ltd,Custom Woodworking,7,9556,195 St,V4N4G2,6048828907,2,GTC,Commercial/Industrial,2011,-122.68219,49.1762
Auto Camping Limited,New automotive parts,104,6448,148 St,V3S7G7,6045729787,4,NTC,Commercial/Industrial,2011,-122.81204,49.11973
Auto Pacific Motor Cars Ltd,Automobile Dealer/Rebuilder,0,16187,Fraser Hwy,V4N0G2,6044355222,2,FTC,Commercial/Industrial,2011,-122.7741,49.15561
Auto Parts Plus Surrey,Auto Parts,102,7728,128 St,V3W1L3,6045966244,5,NTC,Commercial/Industrial,2011,-122.86779,49.14358
Auto Valley Rebuilders,Remanufacturing,103,12882,85 Ave,V3W0K8,7785780408,2,NTC,Commercial/Industrial,2011,-122.86541,49.15752
Automan Auto Body,Automotive Repair Service,108,11558,132A St,V3R7S2,6045808087,1,WTC,Commercial/Industrial,2011,-122.85489,49.21225
Automated Data Systems Inc,Administration Office,301,7337,137 St,V3W1A4,6045991895,10,NTC,Commercial/Industrial,2011,-122.84296,49.13623
Autoplus Automotive Inc,Auto Sales,102,13777,103 Ave,V3T5B5,6045808868,1,SCC,Commercial/Industrial,2011,-122.84028,49.18977
Autorama Enterprises Limited,Automobile Dealer/Rebuilder,1,3033,King George Blvd,V4P1B8,6044350972,1,SSTC,Commercial/Industrial,2011,-122.80823,49.05729
Autorite Auto & Truck Repairs Ltd.,"Auto Body/Painting, Automotive Repair Service",0,12372,84 Ave,V3W0J5,6045978155,4,NTC,Commercial/Industrial,2011,-122.8792,49.15563
Avaal Technology Solutions Inc,Consultant,302,17665,66A Ave,V3S2A7,4168212199,2,CTC,Commercial/Industrial,2011,-122.73305,49.12343
Avalon & Surrey Funeral Home,Funeral Home,0,13288,108 Ave,V3T2J6,6045814401,4,SCC,Commercial/Industrial,2011,-122.85415,49.19885
Avalon Husky Market,"Gas Station,Retail",0,10815,132 St,V3T3W6,6045888860,1,SCC,Commercial/Industrial,2011,-122.85661,49.19928
Avalon Husky Market,"Gas Station,Retail",0,10815,132 St,V3T3W6,6045888860,1,SCC,Commercial/Industrial,2011,-122.85661,49.19928
Avalon Sheet Metal Installations Ltd,Flashing Install. Cont.,0,8075,132A St,V3W4N5,6045902703,1,NTC,Commercial/Industrial,2011,-122.85563,49.14964
Avant Guard Gates & Access Controls Ltd,Gate & Opener Parts,0,5421,180 St,V3S4K5,6045753174,6,CTC,Commercial/Industrial,2011,-122.724,49.10098
Avante,Construction Cont.,2011,7445,132 St,V3W1J8,6045998825,10,NTC,Commercial/Industrial,2011,-122.85687,49.13789
Avanti Aerospace & Engineering Inc,Mfg. & Distribution - Aircraft Parts,11,8473,124 St,V3W9G4,6045908013,1,NTC,Commercial/Industrial,2011,-122.87924,49.1566
Avanti Aerospace & Engineering Inc (Unit 4/5),Mfg. & Repair - Aerospace Parts,41004,8473,124 St,V3W9G4,6045908013,1,NTC,Commercial/Industrial,2011,-122.87924,49.1566
Avenir Marketing Corp,Admin. Office - Construction,260,5620,152 St,V3S3K2,7785712363,1,NTC,Commercial/Industrial,2011,-122.8009,49.10464
Avery Yackel Inc,Acupuncture,202,2383,King George Blvd,V4A5A4,6046714682,1,SSTC,Commercial/Industrial,2011,-122.79321,49.04517
Avi's Fashion & Boutique Ltd,Retail Clothing,0,8430,128 St,V3W0G1,6045997084,2,NTC,Commercial/Industrial,2011,-122.86786,49.156
Avis Rent A Car,"Sales and rentals of vehicles less than 5,000 kilograms [11,023 lbs.] G.V.W.",100,2430,King George Blvd,V4P1H5,6045365307,1,SSTC,Commercial/Industrial,2011,-122.79419,49.04625
Aviscar Inc Canada,Automobile/Truck Rental,0,10076,King George Blvd,V3T2W4,6049302847,1,SCC,Commercial/Industrial,2011,-122.84529,49.18567
Avisio Naturopathic,Holistic Health Care - Naturopathic,101,8501,162 St,V4N1B2,7782183111,1,FTC,Commercial/Industrial,2011,-122.77345,49.15731
Avitan Marketing Resources Corp,Mfg.,0,3033,King George Blvd,V4P1B8,0,1,SSTC,Commercial/Industrial,2011,-122.80823,49.05729
Aviva Uniforms Inc,Uniforms and Accessories,115,12414,82 Ave,V3W3E9,6045431949,1,NTC,Commercial/Industrial,2011,-122.87837,49.15194
Avtar Dhaliwal & Associates,Professional Practitioner-Accountant,202,9386,120 St,V3V4B9,7789982264,1,WTC,Commercial/Industrial,2011,-122.89007,49.17365
Awana International Canada,Charitable Society/Organization,101,2430,King George Blvd,V4P1H5,6045314918,3,SSTC,Commercial/Industrial,2011,-122.79419,49.04625
Axio Business Center,Financial Planning/Consultant,103,8140,120 St,V3W3N3,6045912802,1,NTC,Commercial/Industrial,2011,-122.89023,49.15114
Aylett Grant Group,Accounting,0,12752,28 Ave,V4A2P4,6045388735,1,SSTC,Commercial/Industrial,2011,-122.86865,49.05293
Ayur Beauty Point,Esthetician,0,7295,130A St,V3W6E9,6048258384,1,NTC,Commercial/Industrial,2011,-122.86107,49.13548
Ayurhealing Inc,"Retail Health Food, Vitamins",165,8120,128 St,V3W1R1,6045377526,1,NTC,Commercial/Industrial,2011,-122.86784,49.15021
Azure Spa Inc,Esthetician,204,6820,188 St,V4N3G6,6045753326,1,CTC,Commercial/Industrial,2011,-122.70156,49.12651
Azzkikr Customs Ltd,Choppers,0,19368,Fraser Hwy,V3S6K6,6045391930,1,CTC,Commercial/Industrial,2011,-122.68654,49.11681
Azzkikr Customs Ltd,Automobile Dealer/Rebuilder,0,19368,Fraser Hwy,V3S6K6,6045391930,1,CTC,Commercial/Industrial,2011,-122.68654,49.11681
B & B Bearing & Electric Motor Ltd,"Whlse. Bearings, Power Transmission & Electric Motors & Repairs",10,7788,132 St,V3W0H5,6045913371,7,NTC,Commercial/Industrial,2011,-122.85665,49.14426
B & B Contracting Ltd,Sewer And Septic Contractor,0,19429,54 Ave,V3S7X2,6045397200,2,CTC,Commercial/Industrial,2011,-122.68475,49.10021
B & B Contracting Ltd,Sewer And Septic Contractor,0,19429,54 Ave,V3S7X2,6045397200,2,CTC,Commercial/Industrial,2011,-122.68475,49.10021
B & B Contracting Ltd,Soil Processing,0,3230,192 St,V3S0L5,6045397200,2,SSTC,Commercial/Industrial,2011,-122.69144,49.06478
B & B Furniture Manufacturing Co Ltd,Wholesale - Furniture,101,12732,80 Ave,V3W3A7,6045998291,2,NTC,Commercial/Industrial,2011,-122.86988,49.1481
B & B Truss Partnershiip,Manufacturer/Machine Shop,101,13302,76 Ave,V3W2W1,6045965125,10,NTC,Commercial/Industrial,2011,-122.85393,49.14082
B & B Truss Partnership,Mfg. - Trusses,0,13236,76 Ave,V3W2W1,6045965125,35,NTC,Commercial/Industrial,2011,-122.85569,49.14083
B & D Trucking Ltd,Trucking & Cartage,2,12318,84 Ave,V3W0N2,6045074388,1,NTC,Commercial/Industrial,2011,-122.88188,49.15569
B & G Bhatti Holdings Ltd,Medical Office,14,12578,72 Ave,V3W2M6,6045908070,4,NTC,Commercial/Industrial,2011,-122.87409,49.13383
B & L Aluminum Ltd,Aluminum Railings & Gates,0,5250,185A St,V3S7A4,6045753005,2,CTC,Commercial/Industrial,2011,-122.70845,49.09786
B & W Insurance Agencies,Insurance Agent,306,18690,Fraser Hwy,V3S7Y4,6045758454,5,CTC,Commercial/Industrial,2011,-122.70459,49.12488
B & W Insurance Agency (Fraser Hwy),Insurance Agency,0,16007,Fraser Hwy,V4N0G2,6045976555,4,FTC,Commercial/Industrial,2011,-122.77852,49.15734
B 4 U Digital Media Source,"Computer repair service,video rentals",185,8138,128 St,V3W1R1,7787464641,1,NTC,Commercial/Industrial,2011,-122.86784,49.15053
B 4 U Digital Media Source,"Computer repair service,video rentals",185,8138,128 St,V3W1R1,7787464641,1,NTC,Commercial/Industrial,2011,-122.86784,49.15053
B 4 U Digital Media Source,Repair & service of computers & cell phones,128,15299,68 Ave,V3S2C1,6048259117,2,NTC,Commercial/Industrial,2011,-122.79818,49.12644
B A Robinson Ltd,Plumbing & Heating Supplies,0,7678,132 St,V3W4M9,7782182563,13,NTC,Commercial/Industrial,2011,-122.85663,49.14236
B B Nails Ltd,Nail salon,0,9512,120 St,V3V4C1,6045852009,1,WTC,Commercial/Industrial,2011,-122.89004,49.17565
B C Access Flooring Inc,Whlse. Flooring,305,13060,80 Ave,V3W3B2,6045437967,1,NTC,Commercial/Industrial,2011,-122.86059,49.14808
B C Auto Repair,Auto repairs on heavy trucks & passenger vehicles,0,12003,Old Yale Rd,V3V3X4,6049570374,1,WTC,Commercial/Industrial,2011,-122.88912,49.20261
B C B G Max Azria,Retail,40,16031,24 Ave,V3S9H7,6045310654,10,SSTC,Commercial/Industrial,2011,-122.77836,49.04564
B C Biomedical Laboratories (32 Ave),Medical & Diagnostic Laboratories,112,15252,32 Ave,V3S0R7,6045075191,3,SSTC,Commercial/Industrial,2011,-122.80002,49.06149
B C BioMedical Laboratories Ltd (16 Ave),Medical Laboratory,120,15321,16 Ave,V4A1R6,6045075000,3,SSTC,Commercial/Industrial,2011,-122.79788,49.0312
B C BioMedical Laboratories Ltd (72 Ave),Medical Laboratory,124,13745,72 Ave,V3W2P2,6045918618,6,NTC,Commercial/Industrial,2011,-122.84093,49.13367
B C BioMedical Laboratories Ltd (7455 - 130 St),Medical Laboratory,0,7455,130 St,V3W1H8,6045075000,267,NTC,Commercial/Industrial,2011,-122.86196,49.13878
B C Box Company Inc,Mfg. - Corrugated Box,106,13025,76 Ave,V3W2V7,6045079988,1,NTC,Commercial/Industrial,2011,-122.8611,49.14106
B C Centre for Ability Associaton,Employment centre for persons with disability,330,10362,King George Blvd,V3T2W5,6045806962,5,SCC,Commercial/Industrial,2011,-122.84522,49.19069
B C College Of Optics,Training Services,208,10070,King George Blvd,V3T2W4,6045810101,1,SCC,Commercial/Industrial,2011,-122.84529,49.18557
B C Cultural Bhangra Academy Inc,Bhanga Dance Entertainment School,136,7536,130 St,V3W1H8,6047254999,1,NTC,Commercial/Industrial,2011,-122.86169,49.13956
B C Currency Exchange Inc,"Currency Exchange, Cheque Cashing",107,10230,152 St,V3R6N7,6045832224,2,GTC,Commercial/Industrial,2011,-122.80076,49.18836
B C Currency Exchange Inc,"Currency Exchange, Cheque Cashing",107,10230,152 St,V3R6N7,6045832224,2,GTC,Commercial/Industrial,2011,-122.80076,49.18836
B C Dealer's Trade In Centre Inc,Used Auto Sales,0,14458,104 Ave,V3R1L9,6046441218,1,GTC,Commercial/Industrial,2011,-122.82147,49.19143
B C Family Hearing Resource Society,Prov Resource Program For Deaf,0,15220,92 Ave,V3R2T8,6045842827,15,FTC,Commercial/Industrial,2011,-122.80057,49.17
B C Fasteners & Tools 2000 Ltd,Wholesale - Fasteners & Tools,101,12824,Anvil (78 Ave) Way,V3W8E7,6045995455,8,NTC,Commercial/Industrial,2011,-122.86711,49.14463
B C Fiberglass,Small structure,0,12251,Industrial Rd,V3V3S1,6045078222,2,WTC,Commercial/Industrial,2011,-122.88281,49.20873
B C Greenhouse Builders Ltd,Mfg. - Glass Enclosures,0,19327,94 Ave,V4N4E6,6048828442,1,GTC,Commercial/Industrial,2011,-122.68676,49.17366
B C Greenhouse Growers' Association,Non-profit Organization to Oversee Greenhouse Growers,207,15252,32 Ave,V3S0R7,6045915480,4,SSTC,Commercial/Industrial,2011,-122.80002,49.06149
B C Happy Homes Immigration Services,Immigration Consultant,0,13541,102 Ave,V3T4X8,6045811194,1,SCC,Commercial/Industrial,2011,-122.846,49.18793
B C Landscape & Nursery Association,Non Profit Organization,0,5783,176A St,V3S6S6,6045747772,4,CTC,Commercial/Industrial,2011,-122.73383,49.10748
B C Logic Corp,"Mfg. - Computer Assembly,  Software",481,13320,78 Ave,V3W0H6,6045995071,3,NTC,Commercial/Industrial,2011,-122.85347,49.14444
B C Masonry Ltd,Masonry/Drywall Cont.,7,19122,27 Ave,V3S5T1,6048880094,1,SSTC,Commercial/Industrial,2011,-122.69362,49.05095
B C Master Maintenance Inc,Janitorial Service,0,9827,138 St,V3T5E3,6045073910,4,SCC,Commercial/Industrial,2011,-122.83992,49.18089
B C Motorcycle Safety Association,Non-Profit Society - Motorcycle Safety,37,13320,116 Ave,V3R0R8,6045800111,2,WTC,Commercial/Industrial,2011,0,0
B C New Style Kitchen Cabinets Inc,Mfg. - Kitchen Cabinets,0,7750,128 St,V3W0R6,6047832513,1,NTC,Commercial/Industrial,2011,-122.8678,49.14392
B C Northern Lights Inc,Mfg. - Horticultural Products,107,13060,80 Ave,V3W3B2,8669333269,7,NTC,Commercial/Industrial,2011,-122.86059,49.14808
B C P Concrete Roof Tile ULC,Mfg.- Concrete Products,0,8650,130 St,V3W1G1,6045963388,15,NTC,Commercial/Industrial,2011,-122.86232,49.15982
B C Patio & Renovations Ltd,Warehouse,212,8625,130 St,V3W1V9,6046146294,1,NTC,Commercial/Industrial,2011,-122.86259,49.15954
B C Plant Health Care Inc,Administration Office,8,13415,76 Ave,V3W2W2,6045919010,1,NTC,Commercial/Industrial,2011,-122.85117,49.14098
B C Quality Homes Ltd,General Cont. - Construction,101,13035,84 Ave,V3W1B3,6045922225,1,NTC,Commercial/Industrial,2011,-122.86126,49.15548
B C Rubber Supply Ltd,Manufacturer/Machine Shop,0,19103,95A Ave,V4N4P3,6045131661,14,GTC,Commercial/Industrial,2011,-122.69404,49.17618
B C T I Brar Career Training Institute Inc,Vocational Training,204,8363,128 St,V3W4G1,6045027520,4,NTC,Commercial/Industrial,2011,-122.86813,49.15456
B C Tires Ltd,Automotive Repair Service,0,15399,Fraser Hwy,V3R3P3,6045857396,1,FTC,Commercial/Industrial,2011,-122.79566,49.16396
B C Towing Ltd,Towing - No Storage,109,8363,128 St,V3W4G1,6048975336,1,NTC,Commercial/Industrial,2011,-122.86813,49.15456
B C Vegetable Marketing Commission,Marketing Office,207,15252,32 Ave,V3S0R7,6045429734,5,SSTC,Commercial/Industrial,2011,-122.80002,49.06149
B C Wall & Ceiling Association,Non-Profit Association - Trades Training,112,18663,52 Ave,V3S8E5,6045927180,2,CTC,Commercial/Industrial,2011,-122.70606,49.09719
B Cheema Roofing Ltd,Roofing Contractor,10,13025,84 Ave,V3W1B3,6043511396,1,NTC,Commercial/Industrial,2011,-122.86151,49.15548
B D Hall Constructors Corp,General Cont.,0,19050,94 Ave,V4N5C3,6048828201,40,GTC,Commercial/Industrial,2011,-122.69463,49.1733
B F D Engineering Ltd,Mfg. - CNC Machine Shop,0,8279,130 St,V3W7X4,6045922346,1,NTC,Commercial/Industrial,2011,-122.86242,49.15293
B G L Brokerage Ltd,Customs Broker,203,15252,32 Ave,V3S0R7,6045412311,1,SSTC,Commercial/Industrial,2011,-122.80002,49.06149
B H S Holdings,Property Mgmt.,200,10706,King George Blvd,V3T2X3,0,1,SCC,Commercial/Industrial,2011,-122.84516,49.19713
B L Greenhouses,Nursery,0,4748,152 St,V4P2J9,6045743189,5,SSTC,Commercial/Industrial,2011,-122.80104,49.08872
B L M Freight,Warehouse,5,12125,86 Ave,V3W3H8,6045968177,2,NTC,Commercial/Industrial,2011,-122.88659,49.1597
B L Nail Studio,Esthetician,20,2438,160 St,V3S0C8,6047648301,1,SSTC,Commercial/Industrial,2011,-122.77907,49.04625
B M Truck Sales Ltd,Automobile Dealer/Rebuilder,101,8455,162 St,V4N1B2,6048621700,1,FTC,Commercial/Industrial,2011,-122.77346,49.15643
B R C Nutrition,Import/Export,28,8111,160 St,V4N0V4,6046302141,3,FTC,Commercial/Industrial,2011,-122.77898,49.1505
B Tech Electronics & Computers,Repair Serv.,0,8362,120 St,V3W3N4,6049615775,1,NTC,Commercial/Industrial,2011,-122.89023,49.15524
B V B Development Ltd,Genral Cont.,100,13302,76 Ave,V3W2W1,6045965125,1,NTC,Commercial/Industrial,2011,-122.85393,49.14082
B W Tractor Trailer Training Center Ltd,"Trucking Service,Trucking & Cartage",0,19260,Enterprise Way,V3S6J9,6045743737,25,CTC,Commercial/Industrial,2011,-122.68454,49.11099
Baba Sri Chand International Foundation,Charitable Society/Organization,201,9386,120 St,V3V4B9,6044965088,1,WTC,Commercial/Industrial,2011,-122.89007,49.17365
Babco Sales Ltd,Equipment & Supply,0,8342,130 St,V3W8J9,6045725666,1,NTC,Commercial/Industrial,2011,-122.86215,49.15418
Back & Body Basics Chiropractic Inc,Chiropractor,118,8232,120 St,V3W3N4,6045943808,1,NTC,Commercial/Industrial,2011,-122.89023,49.15293
Back In Motion Functional Assessments Inc,Consultant - Functional Evaluations/Occupational Therapy,210,7525,King George Blvd,V3W5A8,6042332210,1,NTC,Commercial/Industrial,2011,-122.84576,49.13945
Back In Motion Rehab Inc,Rehabilitation & Disability Mgmt.,300,5450,152 St,V3S5J9,6045752262,8,NTC,Commercial/Industrial,2011,-122.80093,49.10178
Back in Motion Rehab Inc,Counselling Service,240,7525,King George Blvd,V3W5A8,6042332209,1,NTC,Commercial/Industrial,2011,-122.84576,49.13945
Back in Motion Rehab Inc,Professional Practitioner-Medical,210,7525,King George Blvd,V3W5A8,7785784947,15,NTC,Commercial/Industrial,2011,-122.84576,49.13945
Bailey Ventures Ltd,Contractor - Topsoil Screening,100,19429,54 Ave,V3S7X2,6045397200,1,CTC,Commercial/Industrial,2011,-122.68475,49.10021
Bailey's By the Creek Bed & Breakfast,Bed & Breakfast,0,8663,141B St,V3W0S3,6045433688,1,GTC,Commercial/Industrial,2011,-122.82978,49.16018
Bains Travel Ltd,Travel agency,303,8128,128 St,V3W1R1,6045841411,5,NTC,Commercial/Industrial,2011,-122.86784,49.15035
Baird Bettney & Associates Ltd,Professional Practioner - Engineer,201,17802,66 Ave,V3S7X1,6045742221,7,CTC,Commercial/Industrial,2011,-122.72972,49.12227
Bakers Supply House,Bakers' equipment & supplies,102,19495,55 Ave,V3S8P7,6045335334,5,CTC,Commercial/Industrial,2011,-122.68275,49.10245
Bakhet Dr Maged Bakhet Inc,Professional Practitioner-Medical,204,9656,King George Blvd,V3T2V5,6045047426,1,SCC,Commercial/Industrial,2011,-122.84554,49.17787
Balanced Fitness Studio,Recreational Facility,204,10422,168 St,V4N1R9,6045376457,1,GTC,Commercial/Industrial,2011,-122.75634,49.19196
Balbir Auto Repair Ltd,Automotive Repair Service,0,8365,124 St,V3W9G2,6045432880,2,NTC,Commercial/Industrial,2011,-122.87924,49.15495
Bal's Fashion Jewellery,Jewellery,0,0,Guildford Town Centre,V3R7C1,6046030247,1,GTC,Commercial/Industrial,2011,0,0
Balsona's Laser & Skin Care,Esthetician,106,8318,120 St,V3W3N4,6045950763,1,NTC,Commercial/Industrial,2011,-122.89023,49.15446
Bamboo Smoke Shop,"Smoke Shop, Rental Service - Mail Boxes",126,6350,120 St,V3X3K1,6045020205,2,NTC,Commercial/Industrial,2011,-122.89025,49.11836
Bamboo Smoke Shop,"Smoke Shop, Rental Service - Mail Boxes",126,6350,120 St,V3X3K1,6045020205,2,NTC,Commercial/Industrial,2011,-122.89025,49.11836
Banana Republic #1918,Retail,108,15735,Croydon Dr,V3S2L5,5054620036,75,SSTC,Commercial/Industrial,2011,-122.78666,49.04749
Bank Of Montreal,Bank,0,12810,16 Ave,V4A1N4,6045362154,5,SSTC,Commercial/Industrial,2011,-122.86733,49.0312
Bank Of Montreal,Bank,0,7488,King George Blvd,,6046881151,12,NTC,Commercial/Industrial,2011,-122.84548,49.1388
Bank Of Montreal,Bank,0,1626,Martin Dr,V4A6E7,6045315581,14,SSTC,Commercial/Industrial,2011,-122.80516,49.03205
Bank of Montreal (10155 King George Blvd),Banking,0,10155,King George Blvd,V3T5H9,6046681180,8,SCC,Commercial/Industrial,2011,-122.84555,49.18699
Bank of Montreal (176A St),Banking,0,5711,176A St,V3S6S6,6045744152,9,CTC,Commercial/Industrial,2011,-122.73382,49.10618
Bank of Montreal (7140 - 120 St),Banking,0,7140,120 St,V3W3M8,6046681560,13,NTC,Commercial/Industrial,2011,-122.89022,49.13294
Bank of Montreal (Guildford Town Centre),Banking,0,1883,Guildford Town Centre,V3R7B8,6046681589,10,GTC,Commercial/Industrial,2011,0,0
Bank Of Nova Scotia,Bank with 3 ABM's,0,15290,56 Avenue,V3S5K7,7785713301,14,NTC,Commercial/Industrial,2011,-122.79862,49.10433
Bank Of Nova Scotia,Bank,201,16033,108 Ave,V4N1P2,6045863100,18,GTC,Commercial/Industrial,2011,-122.77766,49.19889
Bank of Nova Scotia - Independent Business Centre,Banking,200,13401,108 Ave,V3T5T3,6045863126,18,SCC,Commercial/Industrial,2011,-122.85078,49.199
Bank of Nova Scotia (120 St),Banking,0,7378,120 St,V3W3M9,6045013325,18,NTC,Commercial/Industrial,2011,-122.89022,49.13698
Bank of Nova Scotia (152A Steet),Banking,180,8888,152A St,V3R0V7,6046683000,12,FTC,Commercial/Industrial,2011,-122.79953,49.16405
Bank Of Nova Scotia (2411-160 St),Bank,10,2411,160 St,V3S0C8,6045413484,1,SSTC,Commercial/Industrial,2011,-122.77935,49.04578
Bank of Nova Scotia (Guildford Town Centre),Banking,0,2301,Guildford Town Centre,V3R7B9,6045863200,33,GTC,Commercial/Industrial,2011,0,0
Bank of Nova Scotia (King George Blvd),Banking,16,3189,King George Blvd,V4P1B8,6045410280,14,SSTC,Commercial/Industrial,2011,-122.81162,49.06002
Bank of Nova Scotia (Nordel Way),Bank,0,12040,Nordel Way,V3W1P6,6045017525,20,NTC,Commercial/Industrial,2011,-122.88877,49.16193
Bansal and Associates Consulting Engineers Inc,Professional Practitioner-Engineer,121,13140,80 Ave,V3W3B2,6045017788,2,NTC,Commercial/Industrial,2011,-122.85849,49.14808
Banwait Investments Holdings Ltd,General Cont.,8,13025,84 Ave,V3W1B3,6045988192,1,NTC,Commercial/Industrial,2011,-122.86151,49.15548
Bao Wei Qun,Acupuncture,0,15277,100 Ave,V3R8X2,6045832338,1,GTC,Commercial/Industrial,2011,-122.79881,49.18431
Bar Zal Steel Supply,Warehouse - Steel,320,12960,84 Ave,V3W1K7,6045019966,5,NTC,Commercial/Industrial,2011,-122.86358,49.15529
Baragar Demographics,Software Design & Consultant,0,2324,156 St,V4A4V4,6045353690,1,SSTC,Commercial/Industrial,2011,-122.79007,49.04445
Barcelo's Flame Grilled Chicken,Food Primary-Class B Dining Room,0,7238,137 St,V3W1V3,6045020206,4,NTC,Commercial/Industrial,2011,-122.84267,49.13459
Bare Creek Bed & Breakfast,Bed & Breakfast,0,12216,New Mclellan Rd,V3X2Y1,7785657637,1,NTC,Commercial/Industrial,2011,-122.88412,49.10309
Barnala Trading Company Ltd,"Whlse., Jewellery Repair Service,Retail",338,8140,128 St,V3W1R1,7785523191,1,NTC,Commercial/Industrial,2011,-122.86784,49.15057
Barnes Wheaten Surrey Ltd,Auto Repair,0,6280,120 St,V3X1Y7,6045942277,14,NTC,Commercial/Industrial,2011,-122.89026,49.1171
Barnes Wheaton Chevrolet Cadillac Limited,Automotive Repair Service,5,3050,King George Blvd,V4P1A2,6045367661,35,SSTC,Commercial/Industrial,2011,-122.8082,49.05755
Barnes Wheaton Surrey Ltd,Automobile Dealer/Rebuilder,0,6280,120 St,V3X1Y7,6045942277,1,NTC,Commercial/Industrial,2011,-122.89026,49.1171
Barnett Dembek Architects Inc,Professional Practitioner-Architect,135,7536,130 St,V3W1H8,6045977100,5,NTC,Commercial/Industrial,2011,-122.86169,49.13956
Barney's Pizza & Donair,Restaurant,348,8140,128 St,V3W1R1,7785654416,5,NTC,Commercial/Industrial,2011,-122.86784,49.15057
Baron's Manor Pub Ltd,Liquor Primary-Class D Neighbourhood Pub,0,9568,192 St,V4N3R9,6048885551,1,GTC,Commercial/Industrial,2011,-122.69045,49.17642
Bartle & Gibson Co Ltd,"Whlse. Plumbing, Heating & Electrical Supplies",0,8167,132 St,V3W4N5,6045029122,5,NTC,Commercial/Industrial,2011,-122.85697,49.15111
Basalite Concrete Products Vancouver ULC,Manufacturer - Precast Concrete Products,0,13066,88 Ave,V3W3K3,6045963844,20,NTC,Commercial/Industrial,2011,-122.86082,49.16254
Basant Motors Ltd,Automobile Sales,0,16315,Fraser Hwy,V4N0G1,6045727880,10,FTC,Commercial/Industrial,2011,-122.77014,49.15406
Basant Sweet House Ltd,Restaurant - Sweet Shop,402,8148,128 St,V3W1R1,6045953535,6,NTC,Commercial/Industrial,2011,-122.86784,49.15071
Base Investment & Immigration Corp,Financial Planning/Consultant,1880,13450,102 Ave,V3T5X3,6045852276,3,SCC,Commercial/Industrial,2011,-122.84913,49.18811
Baseline Clothing Ltd,Retail - Clothing,2641,10153,King George Blvd,V3T2W1,6040,1,SCC,Commercial/Industrial,2011,-122.84555,49.18696
Baselines Pub (166 St),Restaurant,100,8233,166 St,V4N5R8,6045766501,1,FTC,Commercial/Industrial,2011,-122.76184,49.15181
Basic IT Solutions,"IT solution provider including assembly, services, warehouse and wholesale of it hardware & equipmen",102,18663,52 Ave,V3S8E5,6045769522,8,CTC,Commercial/Industrial,2011,-122.70606,49.09719
